[
 {
   "Name": "WILD ASIA 2300 SOUTHERN BOULEVARD New York NY 10460",
   "Lat": 40.8502883,
   "Lng": -73.8786113
 },
 {
   "Name": "P & S DELI GROCERY 730 COLUMBUS AVENUE New York NY 10025",
   "Lat": 40.7925587,
   "Lng": -73.9680572
 },
 {
   "Name": "ANGELIKA FILM CENTER 18 WEST HOUSTON STREET New York NY 10012",
   "Lat": 40.7250632,
   "Lng": -73.9976946
 },
 {
   "Name": "SHASHEMENE INT'L RESTAURA 195 EAST 56 STREET New York NY 11203",
   "Lat": 40.6515882,
   "Lng": -73.9330429
 },
 {
   "Name": "CARVEL ICE CREAM 1006 EAST 233 STREET New York NY 10466",
   "Lat": 40.8887394,
   "Lng": -73.8477874
 },
 {
   "Name": "LEXLER DELI 405 LEXINGTON AVENUE New York NY 10174",
   "Lat": 40.7516269,
   "Lng": -73.97535
 },
 {
   "Name": "SNACK TIME GRILL 87-69 LEFFERTS BOULEVARD New York NY 11418",
   "Lat": 40.7001121,
   "Lng": -73.8309503
 },
 {
   "Name": "MITCHEL LONDON FOODS 22 EAST 65 STREET New York NY 10065",
   "Lat": 40.7645239,
   "Lng": -73.9624327
 },
 {
   "Name": "SPOON BREAD CATERING 364 WEST 110 STREET New York NY 10025",
   "Lat": 40.7999209,
   "Lng": -73.9683102
 },
 {
   "Name": "TERMINAL CAFE/YANKEE CLIPPER 0 GUARDIA AIRPORT PARKING New York NY 11371",
   "Lat": 40.7766392,
   "Lng": -73.87425
 },
 {
   "Name": "PLAZA BAGELS & DELI 73 NEW DORP PLAZA New York NY 10306",
   "Lat": 40.5734023,
   "Lng": -74.1177623
 },
 {
   "Name": "B & M HOT BAGEL & GROCERY 203 GIFFORDS LANE New York NY 10308",
   "Lat": 40.5564316,
   "Lng": -74.1523097
 },
 {
   "Name": "TEXAS ROTISSERIE 94 FULTON STREET New York NY 10038",
   "Lat": 40.7092038,
   "Lng": -74.0061936
 },
 {
   "Name": "MANHEM CLUB 658 CLARENCE AVE New York NY 10465",
   "Lat": 40.829411,
   "Lng": -73.81364
 },
 {
   "Name": "OLD TOWN BAR & RESTAURANT 45 EAST 18 STREET New York NY 10003",
   "Lat": 40.7322535,
   "Lng": -73.9874105
 },
 {
   "Name": "BEN-BEST DELI & RESTAURANT 96-40 QUEENS BOULEVARD New York NY 11374",
   "Lat": 40.7295323,
   "Lng": -73.8613499
 },
 {
   "Name": "DONOHUE'S STEAK HOUSE 845 LEXINGTON AVENUE New York NY 10065",
   "Lat": 40.765431,
   "Lng": -73.965531
 },
 {
   "Name": "DINING ROOM . ALLEN TRIPO New York NY 10075",
   "Lat": 40.7728432,
   "Lng": -73.9558204
 },
 {
   "Name": "NEW PARK PIZZERIA & RESTAURANT 156-71 CROSSBAY BOULEVARD New York NY 11414",
   "Lat": 40.7048296,
   "Lng": -73.8160989
 },
 {
   "Name": "MELODY LANES 461 37 STREET New York NY 11232",
   "Lat": 40.6527418,
   "Lng": -74.0028771
 },
 {
   "Name": "SHELL LANES 1 BOUCK COURT New York NY 11223",
   "Lat": 40.5888453,
   "Lng": -73.9735108
 },
 {
   "Name": "SOUTH SHORE SWIMMING CLUB 6736 HYLAN BOULEVARD New York NY 10309",
   "Lat": 40.507255,
   "Lng": -74.22679
 },
 {
   "Name": "MAY MAY KITCHEN 1269 SUTTER AVENUE New York NY 11208",
   "Lat": 40.6731108,
   "Lng": -73.8711024
 },
 {
   "Name": "STEVE CHU'S DELI & GROCERY 3406 10 STREET New York NY 11106",
   "Lat": 40.7595044,
   "Lng": -73.9271644
 },
 {
   "Name": "COMO PIZZA 4035 BROADWAY New York NY 10032",
   "Lat": 40.8422945,
   "Lng": -73.9395182
 },
 {
   "Name": "ANGELO OF MULBERRY ST. 146 MULBERRY STREET New York NY 10013",
   "Lat": 40.7188698,
   "Lng": -73.9973041
 },
 {
   "Name": "PANCHITO'S 103 MACDOUGAL STREET New York NY 10012",
   "Lat": 40.729795,
   "Lng": -74.001043
 },
 {
   "Name": "SPAIN RESTAURANT & BAR 113 WEST 13 STREET New York NY 10011",
   "Lat": 40.7464969,
   "Lng": -74.0094471
 },
 {
   "Name": "PALACE CAFE 206 NASSAU AVENUE New York NY 11222",
   "Lat": 40.7253944,
   "Lng": -73.9446421
 },
 {
   "Name": "KING YUM RESTAURANT 181-08 UNION TURNPIKE New York NY 11366",
   "Lat": 40.7271349,
   "Lng": -73.786481
 },
 {
   "Name": "J&V FAMOUS PIZZA 6322 18 AVENUE New York NY 11204",
   "Lat": 40.6195067,
   "Lng": -73.9859414
 },
 {
   "Name": "GARGIULO'S RESTAURANT 2911 WEST 15 STREET New York NY 11224",
   "Lat": 40.5749261,
   "Lng": -73.9859414
 },
 {
   "Name": "PATSY'S ITALIAN RESTAURANT 236 WEST 56 STREET New York NY 10019",
   "Lat": 40.7686973,
   "Lng": -73.9918181
 },
 {
   "Name": "MCDWYERS PUB 331 EAST 204 STREET New York NY 10467",
   "Lat": 40.8723987,
   "Lng": -73.8713099
 },
 {
   "Name": "BLARNEY BAR 146-09 JAMAICA AVENUE New York NY 11435",
   "Lat": 40.702028,
   "Lng": -73.808593
 },
 {
   "Name": "HEALY'S PUB 10807 ROCKAWAY BEACH BOULEVARD New York NY 11694",
   "Lat": 40.5812137,
   "Lng": -73.8299395
 },
 {
   "Name": "FIFTH AVENUE BINGO 416 5 AVENUE New York NY 11215",
   "Lat": 40.6681669,
   "Lng": -73.9800645
 },
 {
   "Name": "3 STAR COFFEE SHOP 541 COLUMBUS AVENUE New York NY 10024",
   "Lat": 40.7865322,
   "Lng": -73.9721743
 },
 {
   "Name": "THREE STAR RESTAURANT 1611 AVENUE U New York NY 11229",
   "Lat": 40.599217,
   "Lng": -73.955074
 },
 {
   "Name": "BRENNAN & CARR 3432 NOSTRAND AVENUE New York NY 11229",
   "Lat": 40.60021,
   "Lng": -73.942194
 },
 {
   "Name": "SHIMONS KOSHER PIZZA 71-24 MAIN STREET New York NY 11367",
   "Lat": 40.7272651,
   "Lng": -73.8221567
 },
 {
   "Name": "THE RIVIERA CAFE 225 WEST 4 STREET New York NY 10014",
   "Lat": 40.7366138,
   "Lng": -74.0094471
 },
 {
   "Name": "LI GRECIS STAATEN RESTAURANT 697 FOREST AVENUE New York NY 10310",
   "Lat": 40.629819,
   "Lng": -74.112238
 },
 {
   "Name": "SHUN LEE PALACE RESTAURANT 155 EAST 55 STREET New York NY 10022",
   "Lat": 40.7593941,
   "Lng": -73.9697795
 },
 {
   "Name": "TAMAQUA 84 EBONY COURT New York NY 11229",
   "Lat": 40.5943372,
   "Lng": -73.9300263
 },
 {
   "Name": "MUNCHTIME 21 EAST 170 STREET New York NY 10452",
   "Lat": 40.8376318,
   "Lng": -73.9212858
 },
 {
   "Name": "BURGER HEAVEN 9 EAST 53 STREET New York NY 10022",
   "Lat": 40.7593941,
   "Lng": -73.9697795
 },
 {
   "Name": "CARA MIA 220-20 HILLSIDE AVENUE New York NY 11427",
   "Lat": 40.7308061,
   "Lng": -73.7427047
 },
 {
   "Name": "IHOP 4340 BOSTON ROAD New York NY 10475",
   "Lat": 40.889891,
   "Lng": -73.819324
 },
 {
   "Name": "RICHMOND COUNTY COUNTRY CLUB 135 FLAGG PLACE New York NY 10304",
   "Lat": 40.58834,
   "Lng": -74.104656
 },
 {
   "Name": "DA VINCI PIZZA 6514 18 AVENUE New York NY 11204",
   "Lat": 40.6195067,
   "Lng": -73.9859414
 },
 {
   "Name": "TWINS PUB 421 9 AVENUE New York NY 10001",
   "Lat": 40.7536854,
   "Lng": -73.9991637
 },
 {
   "Name": "JG MELON RESTAURANT 1291 3 AVENUE New York NY 10021",
   "Lat": 40.7700703,
   "Lng": -73.9580246
 },
 {
   "Name": "FLAME RESTAURANT COFFEE HOUSE 893 9 AVENUE New York NY 10019",
   "Lat": 40.7686973,
   "Lng": -73.9918181
 },
 {
   "Name": "LENNY'S CLAM BAR 16103 CROSSBAY BOULEVARD New York NY 11414",
   "Lat": 40.7048296,
   "Lng": -73.8160989
 },
 {
   "Name": "EL GRECO DINER 1821 EMMONS AVENUE New York NY 11235",
   "Lat": 40.5835393,
   "Lng": -73.9502413
 },
 {
   "Name": "LB SPUMONI GARDENS 2725 86 STREET New York NY 11223",
   "Lat": 40.6009233,
   "Lng": -73.977126
 },
 {
   "Name": "AFRICAN TERRACE 2300 SOUTHERN BOULEVARD New York NY 10460",
   "Lat": 40.8502883,
   "Lng": -73.8786113
 },
 {
   "Name": "DA SILVANO RESTAURANT 260 6 AVENUE New York NY 10014",
   "Lat": 40.7366138,
   "Lng": -74.0094471
 },
 {
   "Name": "BOOTS & SADDLE BAR 76 CHRISTOPHER STREET New York NY 10014",
   "Lat": 40.7335084,
   "Lng": -74.0034102
 },
 {
   "Name": "NEW PARKWAY RESTAURANT 7504 13 AVENUE New York NY 11228",
   "Lat": 40.6137658,
   "Lng": -74.0153231
 },
 {
   "Name": "CAFE RIAZOR 245 WEST 16 STREET New York NY 10011",
   "Lat": 40.7464969,
   "Lng": -74.0094471
 },
 {
   "Name": "MARBELLA RESTAURANT 22033 NORTHERN BOULEVARD New York NY 11361",
   "Lat": 40.761876,
   "Lng": -73.760782
 },
 {
   "Name": "P.J.' S 18925 UNION TURNPIKE New York NY 11366",
   "Lat": 40.7296423,
   "Lng": -73.7798308
 },
 {
   "Name": "HATSUHANA RESTAURANT 17 EAST 48 STREET New York NY 10017",
   "Lat": 40.7519846,
   "Lng": -73.9697795
 },
 {
   "Name": "VIAND COFFEE SHOP 673 MADISON AVENUE New York NY 10065",
   "Lat": 40.764834,
   "Lng": -73.970169
 },
 {
   "Name": "THE HYTES BAR 1082 ST JOHNS PLACE New York NY 11213",
   "Lat": 40.67096,
   "Lng": -73.942599
 },
 {
   "Name": "PERGOLA DES ARTISTES 252 WEST 46 STREET New York NY 10036",
   "Lat": 40.7602619,
   "Lng": -73.9932872
 },
 {
   "Name": "TWO STEPS DOWN 240 DE KALB AVENUE New York NY 11205",
   "Lat": 40.6945036,
   "Lng": -73.9565551
 },
 {
   "Name": "MCDONALD'S 395 FLATBUSH AVENUE EXTENSION New York NY 11201",
   "Lat": 40.6895078,
   "Lng": -73.9808063
 },
 {
   "Name": "EL POTE ESPANOL 718 2 AVENUE New York NY 10016",
   "Lat": 40.74727,
   "Lng": -73.9800645
 },
 {
   "Name": "MUDVILLE SALOON 126 CHAMBERS STREET New York NY 10007",
   "Lat": 40.7151413,
   "Lng": -74.0089396
 },
 {
   "Name": "JOHNNY'S REEF RESTAURANT 2 CITY ISLAND AVE New York NY 10464",
   "Lat": 40.8377713,
   "Lng": -73.7826735
 },
 {
   "Name": "WHITE CASTLE 846 EMPIRE BOULEVARD New York NY 11213",
   "Lat": 40.7898933,
   "Lng": -73.8292118
 },
 {
   "Name": "FERDINANDO'S RESTAURANT 151 UNION STREET New York NY 11231",
   "Lat": 40.684236,
   "Lng": -74.0018435
 },
 {
   "Name": "PETE'S TAVERN 129 EAST 18 STREET New York NY 10003",
   "Lat": 40.7322535,
   "Lng": -73.9874105
 },
 {
   "Name": "GINO'S PIZZERIA 61-32 SPRINGFIELD BOULEVARD New York NY 11364",
   "Lat": 40.7546781,
   "Lng": -73.7609044
 },
 {
   "Name": "JOHN MULLIGAN'S 4272 KATONAH AVENUE New York NY 10470",
   "Lat": 40.8977501,
   "Lng": -73.8672049
 },
 {
   "Name": "EAR INN 326 SPRING STREET New York NY 10013",
   "Lat": 40.7258405,
   "Lng": -74.0094737
 },
 {
   "Name": "BURGER KING 6815 NORTHERN BOULEVARD New York NY 11377",
   "Lat": 40.7545592,
   "Lng": -73.8978737
 },
 {
   "Name": "MCDONALD'S 3267 RICHMOND AVENUE New York NY 10312",
   "Lat": 40.5595789,
   "Lng": -74.1695538
 },
 {
   "Name": "TONY'S PIZZERIA 336 KNICKERBOCKER AVENUE New York NY 11237",
   "Lat": 40.701015,
   "Lng": -73.922642
 },
 {
   "Name": "THREE GUY'S RESTAURANT 960 MADISON AVENUE New York NY 10021",
   "Lat": 40.7741339,
   "Lng": -73.964082
 },
 {
   "Name": "CUCINA VIVOLO 138140 EAST 74 STREET New York NY 10021",
   "Lat": 40.7700703,
   "Lng": -73.9580246
 },
 {
   "Name": "DIVERS COVE 2901 FRANCIS LEWIS BOULEVARD New York NY 11358",
   "Lat": 40.7702099,
   "Lng": -73.792701
 },
 {
   "Name": "CAFE ESPANOL 172 BLEECKER STREET New York NY 10012",
   "Lat": 40.7287609,
   "Lng": -74.0007509
 },
 {
   "Name": "SMITH & WOLLENSKY 201 EAST 49 STREET New York NY 10017",
   "Lat": 40.7519846,
   "Lng": -73.9697795
 },
 {
   "Name": "MCDONALD'S 16011 WILLETS POINT BOULEVARD New York NY 11357",
   "Lat": 40.780748,
   "Lng": -73.802319
 },
 {
   "Name": "PERKINS FAMILY RESTAURANT & BAKERY 1745 FOREST AVENUE New York NY 10303",
   "Lat": 40.625178,
   "Lng": -74.146976
 },
 {
   "Name": "MAMA LUCIA 1701 FOSTER AVENUE New York NY 11230",
   "Lat": 40.6351394,
   "Lng": -73.9611642
 },
 {
   "Name": "COLISEUM BAR RESTAURANT 312 WEST 58 STREET New York NY 10019",
   "Lat": 40.7686973,
   "Lng": -73.9918181
 },
 {
   "Name": "MARIELLA PIZZA 180 3 AVENUE New York NY 10003",
   "Lat": 40.7322535,
   "Lng": -73.9874105
 },
 {
   "Name": "VINNY'S PIZZA 19901 32 AVENUE New York NY 11358",
   "Lat": 40.760743,
   "Lng": -73.7977928
 },
 {
   "Name": "LA BARAKA RESTAURANT 255-09 NORTHERN BOULEVARD New York NY 11362",
   "Lat": 40.7723579,
   "Lng": -73.734425
 },
 {
   "Name": "DAIRY LUNCHEONETTE 4801 16 AVENUE New York NY 11204",
   "Lat": 40.6195067,
   "Lng": -73.9859414
 },
 {
   "Name": "ZAFI'S LUNCHEONETTE 500 GRAND STREET New York NY 10002",
   "Lat": 40.7150766,
   "Lng": -73.9828058
 },
 {
   "Name": "LA PALINA RESTAURANT 159 AVENUE O New York NY 11204",
   "Lat": 40.611024,
   "Lng": -73.978877
 },
 {
   "Name": "B T G. ENTERPRISES 5505 CHURCH AVENUE New York NY 11203",
   "Lat": 40.652682,
   "Lng": -73.925412
 },
 {
   "Name": "EXCLUSIVE CATERING 275 MARTLING AVE New York NY 10314",
   "Lat": 40.6211314,
   "Lng": -74.1229328
 },
 {
   "Name": "MCDONALD'S 3660 EAST TREMONT AVENUE New York NY 10465",
   "Lat": 40.8276846,
   "Lng": -73.8233981
 },
 {
   "Name": "BURGER KING 92-83 QUEENS BOULEVARD New York NY 11374",
   "Lat": 40.7319498,
   "Lng": -73.866461
 },
 {
   "Name": "DAZIES RESTAURANT 39-41 QUEENS BOULEVARD New York NY 11104",
   "Lat": 40.744085,
   "Lng": -73.9252076
 },
 {
   "Name": "TRIESTES RESTAURANT 7316 NORTHERN BOULEVARD New York NY 11372",
   "Lat": 40.7546412,
   "Lng": -73.8935518
 },
 {
   "Name": "MURALS ON 54/RANDOLPHS'S 65 WEST 54 STREET New York NY 10019",
   "Lat": 40.7686973,
   "Lng": -73.9918181
 },
 {
   "Name": "SHABU-SHABU 70 RESTAURANT 314 EAST 70 STREET New York NY 10021",
   "Lat": 40.7700703,
   "Lng": -73.9580246
 },
 {
   "Name": "CHEN'S CHINESE 1434 RICHMOND ROAD New York NY 10304",
   "Lat": 40.594194,
   "Lng": -74.098706
 },
 {
   "Name": "RACQUET & TENNIS CLUB 370 PARK AVENUE New York NY 10022",
   "Lat": 40.7588047,
   "Lng": -73.9732838
 },
 {
   "Name": "CASA PEPE 114 BAYRIDGE AVENUE New York NY 11220",
   "Lat": 40.6385229,
   "Lng": -74.0153231
 },
 {
   "Name": "OLYMPIC RESTAURANT 115 DELANCEY STREET New York NY 10002",
   "Lat": 40.7182566,
   "Lng": -73.9881462
 },
 {
   "Name": "KEENS STEAKHOUSE 72 East 36th Street New York NY 10018",
   "Lat": 40.755322,
   "Lng": -73.9932872
 },
 {
   "Name": "READY PENNY INN 3707 73 STREET New York NY 11372",
   "Lat": 40.7527924,
   "Lng": -73.8801301
 },
 {
   "Name": "SHUN LEE 37 WEST 65 STREET New York NY 10023",
   "Lat": 40.7769059,
   "Lng": -73.9800645
 },
 {
   "Name": "BRIDGEVIEW DINER 9011 THIRD AVENUE New York NY 11209",
   "Lat": 40.620557,
   "Lng": -74.031696
 },
 {
   "Name": "PRIMAVERA PIZZA & PASTA 1005 2 AVENUE New York NY 10022",
   "Lat": 40.7593941,
   "Lng": -73.9697795
 },
 {
   "Name": "TONY'S PIER RESTAURANT 1 CITY ISLAND AVE New York NY 10464",
   "Lat": 40.8374725,
   "Lng": -73.7830935
 },
 {
   "Name": "QUALITY CAFE & RESTAURANT 2942 WESTCHESTER AVENUE New York NY 10461",
   "Lat": 40.847101,
   "Lng": -73.832183
 },
 {
   "Name": "LA MEDITERRANEE RESTAURANT 947 2 AVENUE New York NY 10022",
   "Lat": 40.7593941,
   "Lng": -73.9697795
 },
 {
   "Name": "EL CARIBE 5945 STRICKLAND AVENUE New York NY 11234",
   "Lat": 40.6087346,
   "Lng": -73.9153514
 },
 {
   "Name": "OMEN JAPANESE CUISINE 113 THOMPSON STREET New York NY 10012",
   "Lat": 40.7260047,
   "Lng": -74.0019729
 },
 {
   "Name": "MCDONALD'S 82 COURT STREET New York NY 11201",
   "Lat": 40.6913932,
   "Lng": -73.9917897
 },
 {
   "Name": "ROSIE O'GRADY RESTAURANT 800 7 AVENUE New York NY 10019",
   "Lat": 40.7686973,
   "Lng": -73.9918181
 },
 {
   "Name": "DJ REYNOLDS PUB AND RESTAURANT 351 WEST 57 STREET New York NY 10019",
   "Lat": 40.7686973,
   "Lng": -73.9918181
 },
 {
   "Name": "INTERCONTINENTAL THE BARCLAY 111 EAST 48 STREET New York NY 10017",
   "Lat": 40.7519846,
   "Lng": -73.9697795
 },
 {
   "Name": "RIVIERA CATERER 2780 STILLWELL AVENUE New York NY 11224",
   "Lat": 40.579505,
   "Lng": -73.98242
 },
 {
   "Name": "TOV KOSHER KITCHEN 97-22 63 ROAD New York NY 11374",
   "Lat": 40.7255722,
   "Lng": -73.8624893
 },
 {
   "Name": "THE MOVABLE FEAST 284 PROSPECT PARK WEST New York NY 11215",
   "Lat": 40.6580753,
   "Lng": -73.9829239
 },
 {
   "Name": "SABROSURA RESTAURANT 1200 CASTLE HILL AVENUE New York NY 10462",
   "Lat": 40.832069,
   "Lng": -73.8507489
 },
 {
   "Name": "WILKEN'S FINE FOOD 7114 AVENUE U New York NY 11234",
   "Lat": 40.619909,
   "Lng": -73.9068659
 },
 {
   "Name": "REGINA CATERERS 6409 11 AVENUE New York NY 11219",
   "Lat": 40.6310753,
   "Lng": -73.9976946
 },
 {
   "Name": "C & C CATERING SERVICE 7715 18 AVENUE New York NY 11214",
   "Lat": 40.6042332,
   "Lng": -74.0025999
 },
 {
   "Name": "SEUDA FOODS 705 KINGS HIGHWAY New York NY 11223",
   "Lat": 40.6064719,
   "Lng": -73.965411
 },
 {
   "Name": "CARVEL ICE CREAM 203 CHURCH AVENUE New York NY 11218",
   "Lat": 40.6433361,
   "Lng": -73.97818
 },
 {
   "Name": "THE COUNTRY CAFE 60 WALL STREET New York NY 10005",
   "Lat": 40.7062054,
   "Lng": -74.0085357
 },
 {
   "Name": "NORDIC DELICACIES 6909 3 AVENUE New York NY 11209",
   "Lat": 40.6212119,
   "Lng": -74.0329499
 },
 {
   "Name": "SAL'S DELI 129-08 20 AVENUE New York NY 11356",
   "Lat": 40.7901266,
   "Lng": -73.8477874
 },
 {
   "Name": "NATHAN'S FAMOUS 1310 SURF AVENUE New York NY 11224",
   "Lat": 40.5749261,
   "Lng": -73.9859414
 },
 {
   "Name": "GLORIOUS FOOD 522 EAST 74 STREET New York NY 10021",
   "Lat": 40.7700703,
   "Lng": -73.9580246
 },
 {
   "Name": "CARVEL ICE CREAM 265-15 HILLSIDE AVENUE New York NY 11004",
   "Lat": 40.738689,
   "Lng": -73.703234
 },
 {
   "Name": "AGRA RESTAURANT 807 LEXINGTON AVENUE New York NY 10065",
   "Lat": 40.7641697,
   "Lng": -73.9664345
 },
 {
   "Name": "ARTURO'S 1617 YORK AVENUE New York NY 10028",
   "Lat": 40.775478,
   "Lng": -73.947847
 },
 {
   "Name": "PARIS BLUES 2021 7 AVENUE New York NY 10027",
   "Lat": 40.8138912,
   "Lng": -73.9624327
 },
 {
   "Name": "GENE'S RESTURANT 73 WEST 11 STREET New York NY 10011",
   "Lat": 40.7464969,
   "Lng": -74.0094471
 },
 {
   "Name": "MARIA RISTORANTE 3073 EMMONS AVENUE New York NY 11235",
   "Lat": 40.5842084,
   "Lng": -73.9367146
 },
 {
   "Name": "COZY SOUP & BURGER 739 BROADWAY New York NY 10003",
   "Lat": 40.730003,
   "Lng": -73.993406
 },
 {
   "Name": "KOSHER ISLAND 2206 VICTORY BOULEVARD New York NY 10314",
   "Lat": 40.6119572,
   "Lng": -74.1377286
 },
 {
   "Name": "DOWNTOWN DELI 107 CHURCH STREET New York NY 10007",
   "Lat": 40.7132925,
   "Lng": -74.0092084
 },
 {
   "Name": "CAFE METRO 625 8 AVENUE New York NY 10018",
   "Lat": 40.755322,
   "Lng": -73.9932872
 },
 {
   "Name": "BULLY'S DELI 759 BROADWAY New York NY 10003",
   "Lat": 40.7309346,
   "Lng": -73.9925306
 },
 {
   "Name": "MEJLANDER & MULGANNON 7615 5 AVENUE New York NY 11209",
   "Lat": 40.6212119,
   "Lng": -74.0329499
 },
 {
   "Name": "HO MEI RESTAURANT 103-05 37 AVENUE New York NY 11368",
   "Lat": 40.7506343,
   "Lng": -73.8477874
 },
 {
   "Name": "HAPPY GARDEN 1236 238 SPOFFORD AVE New York NY 10474",
   "Lat": 40.8139951,
   "Lng": -73.88947
 },
 {
   "Name": "TONY'S DELI 1069 WYCKOFF AVENUE New York NY 11385",
   "Lat": 40.694924,
   "Lng": -73.902463
 },
 {
   "Name": "HARRIET'S KITCHEN 502 AMSTERDAM AVENUE New York NY 10024",
   "Lat": 40.786714,
   "Lng": -73.976112
 },
 {
   "Name": "WHITE CASTLE 531 MYRTLE AVENUE New York NY 11205",
   "Lat": 40.6940001,
   "Lng": -73.9634876
 },
 {
   "Name": "MORRIS PARK BAKE SHOP 1007 MORRIS PARK AVE New York NY 10462",
   "Lat": 40.848447,
   "Lng": -73.856077
 },
 {
   "Name": "WENDY'S 469 FLATBUSH AVENUE New York NY 11225",
   "Lat": 40.662942,
   "Lng": -73.961704
 },
 {
   "Name": "NERON'S PIZZA 21532 HILLSIDE AVENUE New York NY 11427",
   "Lat": 40.727081,
   "Lng": -73.748749
 },
 {
   "Name": "MOMS LUNCHEONETTE 10102 103 AVENUE New York NY 11417",
   "Lat": 40.6736207,
   "Lng": -73.8448469
 },
 {
   "Name": "HAAGEN-DAZS 1 PENN PLAZA New York NY 10119",
   "Lat": 40.7511286,
   "Lng": -73.992471
 },
 {
   "Name": "FONTANA FAMOUS PIZZA & GYRO 20002 NORTHERN BOULEVARD New York NY 11361",
   "Lat": 40.757529,
   "Lng": -73.782866
 },
 {
   "Name": "HOT BAGELS 7905 METROPOLITAN AVENUE New York NY 11379",
   "Lat": 40.7132577,
   "Lng": -73.8735079
 },
 {
   "Name": "CARVEL ICE CREAM 1111 HYLAN BOULEVARD New York NY 10305",
   "Lat": 40.598818,
   "Lng": -74.079667
 },
 {
   "Name": "DOMINO'S PIZZA 464 3 AVENUE New York NY 10016",
   "Lat": 40.74727,
   "Lng": -73.9800645
 },
 {
   "Name": "SONNY'S HEROS 1031 EAST 92 STREET New York NY 11236",
   "Lat": 40.6387196,
   "Lng": -73.8948295
 },
 {
   "Name": "WINTER CATERERS 584 RICHMOND ROAD New York NY 10304",
   "Lat": 40.61229,
   "Lng": -74.08761
 },
 {
   "Name": "BAGELS N BUNS 2491 VICTORY BOULEVARD New York NY 10314",
   "Lat": 40.6103714,
   "Lng": -74.1459332
 },
 {
   "Name": "OLIVE'S 120 PRINCE STREET New York NY 10012",
   "Lat": 40.7251256,
   "Lng": -73.9998042
 },
 {
   "Name": "MARCO POLO RISTORANTE 345 COURT STREET New York NY 11231",
   "Lat": 40.6821943,
   "Lng": -73.9957111
 },
 {
   "Name": "LORENZO & MARIA'S 1418 THIRD AVENUE New York NY 10028",
   "Lat": 40.7753401,
   "Lng": -73.9568502
 },
 {
   "Name": "BERKELY 437 MADISON AVENUE New York NY 10022",
   "Lat": 40.757365,
   "Lng": -73.975393
 },
 {
   "Name": "GOLDEN PAVILLION 976 RUTLAND ROAD New York NY 11212",
   "Lat": 40.661967,
   "Lng": -73.926962
 },
 {
   "Name": "DUNKIN' DONUTS 56 COURT STREET New York NY 11201",
   "Lat": 40.692273,
   "Lng": -73.991495
 },
 {
   "Name": "PJ BERNSTEIN DELI & RESTAURANT 1215 THIRD AVENUE New York NY 10021",
   "Lat": 40.7684788,
   "Lng": -73.9612178
 },
 {
   "Name": "PJ CARNEY'S 906 7 AVENUE New York NY 10019",
   "Lat": 40.7686973,
   "Lng": -73.9918181
 },
 {
   "Name": "WATER'S EDGE CLUB 401 44 DRIVE FOOT E.RIVER New York NY 11101",
   "Lat": 40.7443091,
   "Lng": -73.9418603
 },
 {
   "Name": "DOMINO'S PIZZA 148 WEST 72 STREET New York NY 10023",
   "Lat": 40.7769059,
   "Lng": -73.9800645
 },
 {
   "Name": "METROPOLITAN CLUB 1 EAST 60 STREET New York NY 10022",
   "Lat": 40.7593941,
   "Lng": -73.9697795
 },
 {
   "Name": "PALM RESTAURANT 837 2 AVENUE New York NY 10017",
   "Lat": 40.7519846,
   "Lng": -73.9697795
 },
 {
   "Name": "21 CLUB 21 WEST 52 STREET New York NY 10019",
   "Lat": 40.7686973,
   "Lng": -73.9918181
 },
 {
   "Name": "HAPPY GARDEN 277 EAST KINGSBRIDGE ROAD New York NY 10458",
   "Lat": 40.8634684,
   "Lng": -73.8941893
 },
 {
   "Name": "JP'S WATERSIDE RESTAURANT 703 MINNIEFORD AVE New York NY 10464",
   "Lat": 40.8575687,
   "Lng": -73.7906439
 },
 {
   "Name": "KOSHER BAGEL HOLE 1423 AVENUE J New York NY 11230",
   "Lat": 40.6253712,
   "Lng": -73.9615993
 },
 {
   "Name": "SEVILLE RESTAURANT 62 CHARLES STREET New York NY 10014",
   "Lat": 40.7348818,
   "Lng": -74.0031319
 },
 {
   "Name": "GOTTSCHEER HALL 657 FAIRVIEW AVENUE New York NY 11385",
   "Lat": 40.7066823,
   "Lng": -73.9057685
 },
 {
   "Name": "ISLE OF CAPRI RESTURANT 1028 3 AVENUE New York NY 10065",
   "Lat": 40.7645239,
   "Lng": -73.9624327
 },
 {
   "Name": "POLISH NATIONAL HOME 261 DRIGGS AVENUE New York NY 11222",
   "Lat": 40.7224876,
   "Lng": -73.9483919
 },
 {
   "Name": "NAPOLI PIZZA 16402 69 AVENUE New York NY 11365",
   "Lat": 40.7421943,
   "Lng": -73.7889689
 },
 {
   "Name": "CAFE ATELIER (ART STUDENTS LEAGUE) 215 WEST 57 STREET New York NY 10019",
   "Lat": 40.7686973,
   "Lng": -73.9918181
 },
 {
   "Name": "JUNIOR'S 386 FLATBUSH AVENUE EXTENSION New York NY 11201",
   "Lat": 40.6986772,
   "Lng": -73.9859414
 },
 {
   "Name": "GREAT KILLS YACHT CLUB 37 MANSION AVE New York NY 10308",
   "Lat": 40.544288,
   "Lng": -74.1401429
 },
 {
   "Name": "MARCHIS RESTAURANT 251 EAST 31 STREET New York NY 10016",
   "Lat": 40.74727,
   "Lng": -73.9800645
 },
 {
   "Name": "PHILADELHIA GRILLE EXPRESS 10004 4 AVENUE New York NY 11209",
   "Lat": 40.6212119,
   "Lng": -74.0329499
 },
 {
   "Name": "CRIMINAL COURT BLDG CAFETERIA 100 CENTRE STREET New York NY 10013",
   "Lat": 40.71599,
   "Lng": -74.0010484
 },
 {
   "Name": "RIZZO'S FINE PIZZA 30-13 STEINWAY STREET New York NY 11103",
   "Lat": 40.763377,
   "Lng": -73.9151096
 },
 {
   "Name": "FORLINIS RESTAURANT 93 BAXTER STREET New York NY 10013",
   "Lat": 40.7169224,
   "Lng": -73.9995049
 },
 {
   "Name": "LA GRENOUILLE 3 EAST 52 STREET New York NY 10022",
   "Lat": 40.7593941,
   "Lng": -73.9697795
 },
 {
   "Name": "WESTERN BAKERY 228-13 MERRICK BOULEVARD New York NY 11413",
   "Lat": 40.6767449,
   "Lng": -73.7416329
 },
 {
   "Name": "JOHNS CAFE & RESTURANT 823 SECOND AVENUE New York NY 10017",
   "Lat": 40.751148,
   "Lng": -73.971606
 },
 {
   "Name": "7B BAR 108 AVENUE B New York NY 10009",
   "Lat": 40.7250067,
   "Lng": -73.98146
 },
 {
   "Name": "REYNOLD'S BAR 4241 BROADWAY New York NY 10033",
   "Lat": 40.8497077,
   "Lng": -73.9365108
 },
 {
   "Name": "TASTE THE TROPICS ICE CREAM 1839 NOSTRAND AVENUE New York NY 11226",
   "Lat": 40.640839,
   "Lng": -73.948194
 },
 {
   "Name": "1 EAST 66TH STREET KITCHEN 1 EAST 66 STREET New York NY 10065",
   "Lat": 40.7645239,
   "Lng": -73.9624327
 },
 {
   "Name": "TOWNE CAFE 2602 EAST 15 STREET New York NY 11235",
   "Lat": 40.5860069,
   "Lng": -73.9418603
 },
 {
   "Name": "OLD HOMESTEAD 56 9 AVENUE New York NY 10011",
   "Lat": 40.7464969,
   "Lng": -74.0094471
 },
 {
   "Name": "DOUGLASTON CLUB 600 WEST DRIVE New York NY 11363",
   "Lat": 40.7766646,
   "Lng": -73.7521838
 },
 {
   "Name": "MARY ANN'S 116 8 AVENUE New York NY 10011",
   "Lat": 40.7464969,
   "Lng": -74.0094471
 },
 {
   "Name": "YANKEE TAVERN 72 EAST 161 STREET New York NY 10451",
   "Lat": 40.8187386,
   "Lng": -73.9271644
 },
 {
   "Name": "DONUT PUB 203 WEST 14 STREET New York NY 10011",
   "Lat": 40.7464969,
   "Lng": -74.0094471
 },
 {
   "Name": "MORAN'S CHELSEA 146 10 AVENUE New York NY 10011",
   "Lat": 40.7464969,
   "Lng": -74.0094471
 },
 {
   "Name": "REBEN LUNCHEONETTE 229 HAVEMEYER STREET New York NY 11211",
   "Lat": 40.7090147,
   "Lng": -73.9590059
 },
 {
   "Name": "TOUT VA BIEN 311 WEST 51 STREET New York NY 10019",
   "Lat": 40.7686973,
   "Lng": -73.9918181
 },
 {
   "Name": "CRYSTAL ROOM 67 OLYMPIA BOULEVARD New York NY 10305",
   "Lat": 40.593237,
   "Lng": -74.070834
 },
 {
   "Name": "JAHN'S RESTAURANT 8104 37 AVENUE New York NY 11372",
   "Lat": 40.7527924,
   "Lng": -73.8801301
 },
 {
   "Name": "LA PARISIENNE DINER 910 SEVENTH AVENUE New York NY 10019",
   "Lat": 40.7660886,
   "Lng": -73.9799932
 },
 {
   "Name": "JOE ALLEN RESTAURANT 326 WEST 46 STREET New York NY 10036",
   "Lat": 40.7602619,
   "Lng": -73.9932872
 },
 {
   "Name": "JOYCE'S TAVERN 3823 RICHMOND AVENUE New York NY 10312",
   "Lat": 40.545084,
   "Lng": -74.1653259
 },
 {
   "Name": "TONY'S PIZZA 1014 LONGWOOD AVENUE New York NY 10459",
   "Lat": 40.8166561,
   "Lng": -73.8968356
 },
 {
   "Name": "FIORENTINO RISTORANTE 313 AVENUE U New York NY 11223",
   "Lat": 40.597154,
   "Lng": -73.9725069
 },
 {
   "Name": "NOSTRAND DONUT SHOP 1449 NOSTRAND AVENUE New York NY 11226",
   "Lat": 40.650985,
   "Lng": -73.949278
 },
 {
   "Name": "KEATS RESTAURANT 842 2 AVENUE New York NY 10017",
   "Lat": 40.7519846,
   "Lng": -73.9697795
 },
 {
   "Name": "CORNER BISTRO 331 WEST 4 STREET New York NY 10014",
   "Lat": 40.7366138,
   "Lng": -74.0094471
 },
 {
   "Name": "LAVELLE'S ADMIRAL'S CLUB 45-15 BROADWAY New York NY 11103",
   "Lat": 40.7569379,
   "Lng": -73.914272
 },
 {
   "Name": "NEW YORK PIZZA SUPREMA 413 8 AVENUE New York NY 10001",
   "Lat": 40.7536854,
   "Lng": -73.9991637
 },
 {
   "Name": "AUNTIE ANNE'S PRETZELS TRACK 18 0 34 STREET New York NY 10001",
   "Lat": 40.7536854,
   "Lng": -73.9991637
 },
 {
   "Name": "KOSHER HUT OF BROOKLYN 709 KINGS HIGHWAY New York NY 11223",
   "Lat": 40.606495,
   "Lng": -73.965344
 },
 {
   "Name": "CAESAR'S PALACE 493 AMSTERDAM AVENUE New York NY 10024",
   "Lat": 40.786074,
   "Lng": -73.97579
 },
 {
   "Name": "MEE SUM COFFEE SHOP 26 PELL STREET New York NY 10013",
   "Lat": 40.715051,
   "Lng": -73.9983
 },
 {
   "Name": "LENIHAN'S SALOON 119-09 ATLANTIC AVENUE New York NY 11418",
   "Lat": 40.694452,
   "Lng": -73.827688
 },
 {
   "Name": "NEW CORNER 7201 8 AVENUE New York NY 11228",
   "Lat": 40.602758,
   "Lng": -73.9639324
 },
 {
   "Name": "Princeton Club 15 WEST 43 STREET New York NY 10036",
   "Lat": 40.7602619,
   "Lng": -73.9932872
 },
 {
   "Name": "ARTURO'S 106 WEST HOUSTON STREET New York NY 10012",
   "Lat": 40.7274874,
   "Lng": -74.0003315
 },
 {
   "Name": "LABETTI'S POST # 2159 390 HYLAN BOULEVARD New York NY 10305",
   "Lat": 40.6096914,
   "Lng": -74.0744432
 },
 {
   "Name": "PETER LUGER STEAKHOUSE 178 BROADWAY New York NY 11211",
   "Lat": 40.7098035,
   "Lng": -73.9625213
 },
 {
   "Name": "EMILIO III BAR 4218 JUNCTION BOULEVARD New York NY 11368",
   "Lat": 40.745683,
   "Lng": -73.8682701
 },
 {
   "Name": "BLARNEY CASTLE 202-24 ROCKAWAY POINT BOULEVARD New York NY 11697",
   "Lat": 40.5595462,
   "Lng": -73.9250442
 },
 {
   "Name": "MCALEER'S PUB 425 AMSTERDAM AVENUE New York NY 10024",
   "Lat": 40.783934,
   "Lng": -73.977372
 },
 {
   "Name": "LONDON LENNIES 6388 WOODHAVEN BOULEVARD New York NY 11374",
   "Lat": 40.7220057,
   "Lng": -73.8671909
 },
 {
   "Name": "V & T RESTAURANT 1024 AMSTERDAM AVENUE New York NY 10025",
   "Lat": 40.8033908,
   "Lng": -73.9639209
 },
 {
   "Name": "DESMOND'S TAVERN 433 PARK AVENUE SOUTH New York NY 10016",
   "Lat": 40.74727,
   "Lng": -73.9800645
 },
 {
   "Name": "NAOMI KOSHER PIZZA 6828 MAIN STREET New York NY 11367",
   "Lat": 40.7336445,
   "Lng": -73.825379
 },
 {
   "Name": "ROLL-N-ROASTER 2901 EMMONS AVENUE New York NY 11235",
   "Lat": 40.5860069,
   "Lng": -73.9418603
 },
 {
   "Name": "DANISH ATHLETIC CLUB 735 65 STREET New York NY 11220",
   "Lat": 40.6385229,
   "Lng": -74.0153231
 },
 {
   "Name": "LE PERIGORD 405 EAST 52 STREET New York NY 10022",
   "Lat": 40.7593941,
   "Lng": -73.9697795
 },
 {
   "Name": "O'HARA'S 120 CEDAR STREET New York NY 10006",
   "Lat": 40.7095273,
   "Lng": -74.0126883
 },
 {
   "Name": "MCDONALD'S 1560 BROADWAY New York NY 10036",
   "Lat": 40.758755,
   "Lng": -73.9845905
 },
 {
   "Name": "JARDIN DE CHINA REST 37-37 JUNCTION BOULEVARD New York NY 11368",
   "Lat": 40.7505307,
   "Lng": -73.8701999
 },
 {
   "Name": "BLARNEY STONE 11 TRINITY PLACE New York NY 10006",
   "Lat": 40.7062029,
   "Lng": -74.0137007
 },
 {
   "Name": "IL VAGABONDO RESTAURANT 351 EAST 62 STREET New York NY 10065",
   "Lat": 40.7645239,
   "Lng": -73.9624327
 },
 {
   "Name": "YANKEE CLIPPER 0 LAGUARDIA AIRPORT BLDG New York NY 11371",
   "Lat": 40.7766392,
   "Lng": -73.87425
 },
 {
   "Name": "O'HANLON'S PUB 22-57 31 STREET New York NY 11105",
   "Lat": 40.7787902,
   "Lng": -73.9065883
 },
 {
   "Name": "THE NEW STARLING ATHLETIC CLUB OF THE BRONX 2222 HAVILAND AVENUE New York NY 10462",
   "Lat": 40.8304811,
   "Lng": -73.8497176
 },
 {
   "Name": "SUPERNOVA-NOVOTEL HOTEL 226 WEST 52 ND STREET New York NY 10019",
   "Lat": 40.7686973,
   "Lng": -73.9918181
 },
 {
   "Name": "PORTO BELLO RESTAURANT 208 THOMPSON STREET New York NY 10012",
   "Lat": 40.7286624,
   "Lng": -73.9991998
 },
 {
   "Name": "PETE'S CLAM STOP 1320 SURF AVENUE New York NY 11224",
   "Lat": 40.5755056,
   "Lng": -73.9819659
 },
 {
   "Name": "HOP KEE RESTAURANT 21 MOTT STREET New York NY 10013",
   "Lat": 40.7143954,
   "Lng": -73.9990337
 },
 {
   "Name": "NANCY WHISKEY PUB 1 LISPENARD STREET New York NY 10013",
   "Lat": 40.720699,
   "Lng": -74.0049219
 },
 {
   "Name": "EMERALD PUB 308 SPRING STREET New York NY 10013",
   "Lat": 40.7258072,
   "Lng": -74.0084936
 },
 {
   "Name": "TAP ROOM 180 CENTRAL PARK SOUTH New York NY 10019",
   "Lat": 40.7665961,
   "Lng": -73.9788694
 },
 {
   "Name": "JACKSON HOLE 232 EAST 64 STREET New York NY 10065",
   "Lat": 40.7645239,
   "Lng": -73.9624327
 },
 {
   "Name": "NANCY'S FIRE SIDE 25541 JAMAICA AVENUE New York NY 11001",
   "Lat": 40.7241318,
   "Lng": -73.7250744
 },
 {
   "Name": "MARGHERITA PIZZA 16304 JAMAICA AVENUE New York NY 11432",
   "Lat": 40.708534,
   "Lng": -73.798991
 },
 {
   "Name": "WHITE HORSE TAVERN 567 HUDSON STREET New York NY 10014",
   "Lat": 40.735663,
   "Lng": -74.006195
 },
 {
   "Name": "JOE & PAT'S PIZZERIA 1758 VICTORY BOULEVARD New York NY 10314",
   "Lat": 40.6130465,
   "Lng": -74.1221179
 },
 {
   "Name": "DORRIAN'S RED HAND RESTAURANT 1616 2 AVENUE New York NY 10028",
   "Lat": 40.7766412,
   "Lng": -73.9521468
 },
 {
   "Name": "JOHN'S RESTAURANT 302 EAST 12 STREET New York NY 10003",
   "Lat": 40.7322535,
   "Lng": -73.9874105
 },
 {
   "Name": "GRASSROOT TAVERN 20 ST MARKS PLACE New York NY 10003",
   "Lat": 40.728848,
   "Lng": -73.988991
 },
 {
   "Name": "BUDDY'S WONDER BAR 17 HARRISON AVENUE New York NY 10302",
   "Lat": 40.6368094,
   "Lng": -74.1373016
 },
 {
   "Name": "DON PEPPE 13558 LEFFERTS BOULEVARD New York NY 11420",
   "Lat": 40.6689548,
   "Lng": -73.8216767
 },
 {
   "Name": "KILLARNEY ROSE 80 BEAVER STREET New York NY 10005",
   "Lat": 40.7052024,
   "Lng": -74.0086833
 },
 {
   "Name": "VILLAGE YOKOCHO 6 STUYVESANT STREET New York NY 10003",
   "Lat": 40.729832,
   "Lng": -73.9892798
 },
 {
   "Name": "CLARK'S RESTAURANT 80 CLARK STREET New York NY 11201",
   "Lat": 40.6974104,
   "Lng": -73.9932232
 },
 {
   "Name": "DANGERFIELD'S NIGHT CLUB 1118 1 AVENUE New York NY 10065",
   "Lat": 40.7645239,
   "Lng": -73.9624327
 },
 {
   "Name": "BARBETTA RESTAURANT 319321 323 W. 46TH ST. New York NY 10036",
   "Lat": 40.7603115,
   "Lng": -73.9891304
 },
 {
   "Name": "MALAGA RESTAURANT 406 EAST 73 STREET New York NY 10021",
   "Lat": 40.7700703,
   "Lng": -73.9580246
 },
 {
   "Name": "CAPITOL RESTAURANT 4933 BROADWAY New York NY 10034",
   "Lat": 40.8678204,
   "Lng": -73.9215284
 },
 {
   "Name": "LA BONNE SOUPE BISTRO 48 WEST 55 STREET New York NY 10019",
   "Lat": 40.7686973,
   "Lng": -73.9918181
 },
 {
   "Name": "MIMIS RESTAURANT & BAR 984 SECOND AVENUE New York NY 10022",
   "Lat": 40.7561212,
   "Lng": -73.9672945
 },
 {
   "Name": "NANNI RESTAURANT 146 EAST 46 STREET New York NY 10017",
   "Lat": 40.7519846,
   "Lng": -73.9697795
 },
 {
   "Name": "GRIFFIS FACULTY CLUB 521 EAST 68 STREET New York NY 10065",
   "Lat": 40.7645239,
   "Lng": -73.9624327
 },
 {
   "Name": "YAFFA CAFE 97 ST MARKS PLACE New York NY 10009",
   "Lat": 40.7275162,
   "Lng": -73.9845618
 },
 {
   "Name": "UNO CHICAGO GRILL 107-16 70 ROAD New York NY 11375",
   "Lat": 40.7209975,
   "Lng": -73.8477874
 },
 {
   "Name": "LATOURETTE GOLF COURSE 1001 RICHMOND HILL ROAD New York NY 10306",
   "Lat": 40.5760984,
   "Lng": -74.1468129
 },
 {
   "Name": "DYKER BEACH GOLF 86 7 AVENUE New York NY 11217",
   "Lat": 40.6830069,
   "Lng": -73.9800645
 },
 {
   "Name": "BLARNEY ROCK 137 WEST 33 STREET New York NY 10001",
   "Lat": 40.7536854,
   "Lng": -73.9991637
 },
 {
   "Name": "PARKSIDE RESTAURANT 10701 CORONA AVENUE New York NY 11368",
   "Lat": 40.743841,
   "Lng": -73.856132
 },
 {
   "Name": "COOL ZONE 2300 SOUTHERN BOULEVARD New York NY 10460",
   "Lat": 40.8502883,
   "Lng": -73.8786113
 },
 {
   "Name": "FASCATI'S PIZZERIA 80 HENRY STREET New York NY 11201",
   "Lat": 40.6984887,
   "Lng": -73.9927131
 },
 {
   "Name": "SIDEWALK BAR & RESTAURANT 94 AVENUE A New York NY 10009",
   "Lat": 40.72548,
   "Lng": -73.983622
 },
 {
   "Name": "COOGAN'S 4015 BROADWAY New York NY 10032",
   "Lat": 40.841736,
   "Lng": -73.9394424
 },
 {
   "Name": "BRADY'S BAR 1583 2 AVENUE New York NY 10028",
   "Lat": 40.7766412,
   "Lng": -73.9521468
 },
 {
   "Name": "IL CORTILE RESTAURANT 123 MULBERRY STREET New York NY 10013",
   "Lat": 40.7179289,
   "Lng": -73.998254
 },
 {
   "Name": "BABY BO'S BURRITOS 627 2 AVENUE New York NY 10016",
   "Lat": 40.74727,
   "Lng": -73.9800645
 },
 {
   "Name": "OCEAN DRAGON RESTAURANT 877 10 AVENUE New York NY 10019",
   "Lat": 40.7686973,
   "Lng": -73.9918181
 },
 {
   "Name": "COBBLESTONE PUB 117-18 QUEENS BOULEVARD New York NY 11375",
   "Lat": 40.715875,
   "Lng": -73.8333432
 },
 {
   "Name": "NEARY'S PUB 358 EAST 57 STREET New York NY 10022",
   "Lat": 40.7593941,
   "Lng": -73.9697795
 },
 {
   "Name": "DENINO'S PIZZERIA TAVERN 524 PORT RICHMOND AVENUE New York NY 10302",
   "Lat": 40.6300274,
   "Lng": -74.1401871
 },
 {
   "Name": "MICHAEL'S RESTAURANT 2929 AVENUE R New York NY 11229",
   "Lat": 40.6074509,
   "Lng": -73.9428077
 },
 {
   "Name": "LITTLE BROWN JUG 12402 JAMAICA AVENUE New York NY 11418",
   "Lat": 40.70061,
   "Lng": -73.826286
 },
 {
   "Name": "LA FUSTA RESTAURANT 80-32 BAXTER AVENUE New York NY 11373",
   "Lat": 40.7447152,
   "Lng": -73.8845544
 },
 {
   "Name": "SPRING ST. NATURAL RESTAURANT 62 SPRING STREET New York NY 10012",
   "Lat": 40.722304,
   "Lng": -73.997387
 },
 {
   "Name": "PIZZA WAGON 8606 5 AVENUE New York NY 11209",
   "Lat": 40.6212119,
   "Lng": -74.0329499
 },
 {
   "Name": "RUSSIAN TURKISH BATHS 268 EAST 10 STREET New York NY 10009",
   "Lat": 40.7275043,
   "Lng": -73.9800645
 },
 {
   "Name": "MALONEY'S BAR 8769 SUTPHIN BOULEVARD New York NY 11435",
   "Lat": 40.705421,
   "Lng": -73.809167
 },
 {
   "Name": "LULU'S COFFEE SHOP 1191 CASTLE HILL AVENUE New York NY 10462",
   "Lat": 40.8317846,
   "Lng": -73.851025
 },
 {
   "Name": "NEW FLORIDIAN DINER 2301 FLATBUSH AVENUE New York NY 11234",
   "Lat": 40.614221,
   "Lng": -73.926893
 },
 {
   "Name": "LA MANGEOIRE 1008 2 AVENUE New York NY 10022",
   "Lat": 40.7593941,
   "Lng": -73.9697795
 },
 {
   "Name": "FINNEGAN'S WAKE 1361 FIRST AVENUE New York NY 10021",
   "Lat": 40.768679,
   "Lng": -73.9556394
 },
 {
   "Name": "GABY'S PIZZA 20423 HILLSIDE AVENUE New York NY 11423",
   "Lat": 40.7204312,
   "Lng": -73.7609377
 },
 {
   "Name": "VERDI RESTAURANT 149-58 CROSS ISLAND PARKWAY New York NY 11357",
   "Lat": 40.786803,
   "Lng": -73.81401
 },
 {
   "Name": "BLUE BAY RESTAURANT 3533 JOHNSON AVENUE New York NY 10463",
   "Lat": 40.88639,
   "Lng": -73.9097766
 },
 {
   "Name": "JODY'S CLUB 372 FOREST AVENUE New York NY 10301",
   "Lat": 40.630788,
   "Lng": -74.1018239
 },
 {
   "Name": "EL CHARRO ESPANOL 4 CHARLES STREET New York NY 10014",
   "Lat": 40.735114,
   "Lng": -74.000658
 },
 {
   "Name": "MARINA DELRAY 2894 SCHURZ AVE New York NY 10465",
   "Lat": 40.8137649,
   "Lng": -73.815175
 },
 {
   "Name": "CHARLIES SPORTS BAR 4408 60TH ST. - STORE New York NY 11377",
   "Lat": 40.7413334,
   "Lng": -73.9036487
 },
 {
   "Name": "NARROWS COFFEE SHOP 10001 4 AVENUE New York NY 11209",
   "Lat": 40.6212119,
   "Lng": -74.0329499
 },
 {
   "Name": "COUSIN JOHN'S CAFE AND BAKERY 70 7 AVENUE New York NY 11217",
   "Lat": 40.6830069,
   "Lng": -73.9800645
 },
 {
   "Name": "RUSSIAN SAMOVAR 256 WEST 52 STREET New York NY 10019",
   "Lat": 40.7686973,
   "Lng": -73.9918181
 },
 {
   "Name": "BARONE PIZZA 4027 MAIN STREET New York NY 11354",
   "Lat": 40.7589323,
   "Lng": -73.8297976
 },
 {
   "Name": "WHITESTONE LANES 3005 WHITESTONE EXPRESSWAY New York NY 11354",
   "Lat": 40.7703833,
   "Lng": -73.8335107
 },
 {
   "Name": "JOHN'S PIZZERIA 8502 GRAND AVENUE New York NY 11373",
   "Lat": 40.737975,
   "Lng": -73.8801301
 },
 {
   "Name": "TIO PEPE 168 WEST 4 STREET New York NY 10014",
   "Lat": 40.7366138,
   "Lng": -74.0094471
 },
 {
   "Name": "IRISH COTTAGE 108-07 72 AVENUE New York NY 11375",
   "Lat": 40.7209975,
   "Lng": -73.8477874
 },
 {
   "Name": "THE ASSEMBLY BAR 7302 COOPER AVENUE New York NY 11385",
   "Lat": 40.703885,
   "Lng": -73.876876
 },
 {
   "Name": "MCDONALD'S 819 PENNSYLVANIA AVENUE New York NY 11207",
   "Lat": 40.6577689,
   "Lng": -73.8899114
 },
 {
   "Name": "JOSIE'S RESTAURANT 300 AMSTERDAM AVENUE New York NY 10023",
   "Lat": 40.7802374,
   "Lng": -73.9809789
 },
 {
   "Name": "Centerplate, Jacob Javitz Convention Center 655 WEST 34 STREET New York NY 10001",
   "Lat": 40.7536854,
   "Lng": -73.9991637
 },
 {
   "Name": "CAFE UN DEUX TROIS 123 WEST 44 STREET New York NY 10036",
   "Lat": 40.7602619,
   "Lng": -73.9932872
 },
 {
   "Name": "KNICKERBOCKER BAR & GRILL 33 UNIVERSITY PLACE New York NY 10003",
   "Lat": 40.7320132,
   "Lng": -73.994428
 },
 {
   "Name": "MR BROADWAY KOSHER RESTAURANT 1372 BROADWAY New York NY 10018",
   "Lat": 40.7523725,
   "Lng": -73.9871436
 },
 {
   "Name": "NI-NI'S CAFE 710 NEW DORP LANE New York NY 10306",
   "Lat": 40.5655379,
   "Lng": -74.1003379
 },
 {
   "Name": "BURGER BARN RESTAURANT 3092 WHITE PLAINS ROAD New York NY 10467",
   "Lat": 40.8705092,
   "Lng": -73.867181
 },
 {
   "Name": "IRENE'S PLACE 623 MANHATTAN AVENUE New York NY 11222",
   "Lat": 40.723595,
   "Lng": -73.950971
 },
 {
   "Name": "MCDONALD'S 75-50 101 AVENUE New York NY 11416",
   "Lat": 40.6853768,
   "Lng": -73.8492576
 },
 {
   "Name": "KANES DELI DINER 4415 COLLEGE POINT BOULEVARD New York NY 11355",
   "Lat": 40.753323,
   "Lng": -73.832379
 },
 {
   "Name": "WHITE CASTLE 900 PENNSYLVANIA AVENUE New York NY 11207",
   "Lat": 40.65591,
   "Lng": -73.889036
 },
 {
   "Name": "J & R PIZZA 1916 KINGS HIGHWAY New York NY 11229",
   "Lat": 40.610183,
   "Lng": -73.954091
 },
 {
   "Name": "CHEZ JOSEPHINE 414 WEST 42 STREET New York NY 10036",
   "Lat": 40.7602619,
   "Lng": -73.9932872
 },
 {
   "Name": "MCDONALD'S 943 FLATBUSH AVENUE New York NY 11226",
   "Lat": 40.6484965,
   "Lng": -73.9582584
 },
 {
   "Name": "ROADHOUSE RESTAURANT 1402 CLOVE ROAD New York NY 10301",
   "Lat": 40.6134163,
   "Lng": -74.1005771
 },
 {
   "Name": "FORD FOUNDATION CAFETERIA 320 EAST 43 STREET New York NY 10017",
   "Lat": 40.7519846,
   "Lng": -73.9697795
 },
 {
   "Name": "MILL BASIN KOSHER DELI 5823 AVENUE T New York NY 11234",
   "Lat": 40.6155739,
   "Lng": -73.9180116
 },
 {
   "Name": "OYSTER BAR GRAND CENTRAL TERMINAL New York NY 10017",
   "Lat": 40.752998,
   "Lng": -73.977056
 },
 {
   "Name": "VILLA MOSCONI RESTAURANT 69 MACDOUGAL STREET New York NY 10012",
   "Lat": 40.7285929,
   "Lng": -74.002001
 },
 {
   "Name": "REME RESTAURANT 4021 BROADWAY New York NY 10032",
   "Lat": 40.8420198,
   "Lng": -73.9395471
 },
 {
   "Name": "MEXICO LINDO RESTAURANT 459 2 AVENUE New York NY 10010",
   "Lat": 40.7388319,
   "Lng": -73.9815337
 },
 {
   "Name": "TERRACE CAFE 2300 SOUTHERN BOULEVARD New York NY 10460",
   "Lat": 40.8502883,
   "Lng": -73.8786113
 },
 {
   "Name": "ELEPHANT & CASTLE 68 GREENWICH AVENUE New York NY 10011",
   "Lat": 40.736224,
   "Lng": -74.000667
 },
 {
   "Name": "BAMONTE'S RESTAURANT 32 WITHERS STREET New York NY 11211",
   "Lat": 40.7166026,
   "Lng": -73.951199
 },
 {
   "Name": "DE ROBERTIS PASTRY SHOP 176 1 AVENUE New York NY 10009",
   "Lat": 40.7275043,
   "Lng": -73.9800645
 },
 {
   "Name": "200 FIFTH AVENUE RESTAURANT & SPORTS BAR 200 5 AVENUE New York NY 11217",
   "Lat": 40.6830069,
   "Lng": -73.9800645
 },
 {
   "Name": "JACK'S PIZZA & PASTA 21249 26 AVENUE New York NY 11360",
   "Lat": 40.7779482,
   "Lng": -73.7801447
 },
 {
   "Name": "GREENPOINT TAVERN 188 BEDFORD AVENUE New York NY 11249",
   "Lat": 40.7177363,
   "Lng": -73.9581492
 },
 {
   "Name": "CHERRY TAVERN 441 EAST 6 STREET New York NY 10009",
   "Lat": 40.7275043,
   "Lng": -73.9800645
 },
 {
   "Name": "MAGGIES PLACE 21 EAST 47 STREET New York NY 10017",
   "Lat": 40.7519846,
   "Lng": -73.9697795
 },
 {
   "Name": "BROOME STREET BAR 363 WEST BROADWAY New York NY 10013",
   "Lat": 40.7231081,
   "Lng": -74.0029643
 },
 {
   "Name": "AMORE PIZZERIA & RESTAURANT 30-27 STRATTON STREET New York NY 11354",
   "Lat": 40.7697284,
   "Lng": -73.8347013
 },
 {
   "Name": "BEAVER POND 2300 SOUTHERN BOULEVARD New York NY 10460",
   "Lat": 40.8502883,
   "Lng": -73.8786113
 },
 {
   "Name": "THE PLAYERS CLUB 16 GRAMERCY PARK SOUTH New York NY 10003",
   "Lat": 40.7376694,
   "Lng": -73.986623
 },
 {
   "Name": "TJK CAFE & RESTAURANT 24904 HORACE HARDING BOULEVARD New York NY 11362",
   "Lat": 40.766243,
   "Lng": -73.724337
 },
 {
   "Name": "PISCES I SEAFOOD RESTAURANT 271-02 UNION TURNPIKE New York NY 11040",
   "Lat": 40.7466623,
   "Lng": -73.6830521
 },
 {
   "Name": "MARIES CRISIS CAFE 59 GROVE STREET New York NY 10014",
   "Lat": 40.733235,
   "Lng": -74.003403
 },
 {
   "Name": "SUSHIDEN 19 EAST 49 STREET New York NY 10017",
   "Lat": 40.7519846,
   "Lng": -73.9697795
 },
 {
   "Name": "ZUM STAMMTISCH 6946 MYRTLE AVENUE New York NY 11385",
   "Lat": 40.7019055,
   "Lng": -73.8811057
 },
 {
   "Name": "RAOULS 180 PRINCE STREET New York NY 10012",
   "Lat": 40.7261357,
   "Lng": -74.002139
 },
 {
   "Name": "PICCOLA VENEZIA 42-01 28 AVENUE New York NY 11103",
   "Lat": 40.7633726,
   "Lng": -73.9109977
 },
 {
   "Name": "BURGER KING 25810 HILLSIDE AVENUE New York NY 11004",
   "Lat": 40.7389554,
   "Lng": -73.7007391
 },
 {
   "Name": "BURGER KING 9006 CHURCH AVENUE New York NY 11236",
   "Lat": 40.6527906,
   "Lng": -73.9199111
 },
 {
   "Name": "COCKTAIL ROOM (NYAC) 180 CENTRAL PARK SOUTH New York NY 10019",
   "Lat": 40.7665961,
   "Lng": -73.9788694
 },
 {
   "Name": "BENJAMIN 603 2 AVENUE New York NY 10016",
   "Lat": 40.7103079,
   "Lng": -73.7944035
 },
 {
   "Name": "DENNY'S PUB 106 BEVERLY ROAD New York NY 11218",
   "Lat": 40.6429397,
   "Lng": -73.9789564
 },
 {
   "Name": "PARK PLAZA RESTAURANT 220 CADMAN PLAZA WEST New York NY 11201",
   "Lat": 40.6979492,
   "Lng": -73.9917897
 },
 {
   "Name": "SIZZLER 10027 METROPOLITAN AVE New York NY 11375",
   "Lat": 40.7109144,
   "Lng": -73.8522308
 },
 {
   "Name": "WEST BANK CAFE 407 WEST 42 STREET New York NY 10036",
   "Lat": 40.7602619,
   "Lng": -73.9932872
 },
 {
   "Name": "GRAY'S PAPAYA 2080 BROADWAY New York NY 10023",
   "Lat": 40.7769059,
   "Lng": -73.9800645
 },
 {
   "Name": "DANI PIZZA AND RESTAURANT 81-28 LEFFERTS BOULEVARD New York NY 11415",
   "Lat": 40.7088878,
   "Lng": -73.8305585
 },
 {
   "Name": "SCHAFFER'S TAVERN 2055 VICTORY BOULEVARD New York NY 10314",
   "Lat": 40.61266,
   "Lng": -74.1321
 },
 {
   "Name": "TY'S 114 CHRISTOPHER STREET New York NY 10014",
   "Lat": 40.733029,
   "Lng": -74.00529
 },
 {
   "Name": "SAM'S PLACE 132 EAST 39 STREET New York NY 10016",
   "Lat": 40.74727,
   "Lng": -73.9800645
 },
 {
   "Name": "RAY'S PIZZA 829 7 AVENUE New York NY 10019",
   "Lat": 40.7686973,
   "Lng": -73.9918181
 },
 {
   "Name": "ONE IF BY LAND TWO IF BY SEA 17 BARROW STREET New York NY 10014",
   "Lat": 40.7366138,
   "Lng": -74.0094471
 },
 {
   "Name": "FIORELLOS 1900 BROADWAY New York NY 10023",
   "Lat": 40.7715145,
   "Lng": -73.9819129
 },
 {
   "Name": "THE LARK'S NEST 4280 KATONAH AVE New York NY 10470",
   "Lat": 40.897947,
   "Lng": -73.86697
 },
 {
   "Name": "VALENTINO'S PIZZA 7147 KISSENA BOULEVARD New York NY 11367",
   "Lat": 40.7286622,
   "Lng": -73.8150936
 },
 {
   "Name": "GREEN HOUSE CAFE 7717 THIRD AVENUE New York NY 11209",
   "Lat": 40.629509,
   "Lng": -74.02827
 },
 {
   "Name": "MARINA CAFE 154 MANSION AVE New York NY 10308",
   "Lat": 40.543997,
   "Lng": -74.140671
 },
 {
   "Name": "DON FILIPPO RESTAURANT 1133 LEXINGTON AVENUE New York NY 10075",
   "Lat": 40.7745559,
   "Lng": -73.958885
 },
 {
   "Name": "COLONNADE DINER 2001 HYLAN BOULEVARD New York NY 10306",
   "Lat": 40.581165,
   "Lng": -74.099018
 },
 {
   "Name": "RED FLAME DINER 67 WEST 44 STREET New York NY 10036",
   "Lat": 40.7602619,
   "Lng": -73.9932872
 },
 {
   "Name": "JACKS ALE HOUSE 39-46 SKILLMAN AVENUE New York NY 11104",
   "Lat": 40.7470048,
   "Lng": -73.9237691
 },
 {
   "Name": "WINNIE'S BAR 104 BAYARD STREET New York NY 10013",
   "Lat": 40.7162194,
   "Lng": -73.9997632
 },
 {
   "Name": "NILES RESTAURANT 371 7 AVENUE New York NY 10001",
   "Lat": 40.7536854,
   "Lng": -73.9991637
 },
 {
   "Name": "NADA-SUSHI 135 EAST 50 STREET New York NY 10022",
   "Lat": 40.7593941,
   "Lng": -73.9697795
 },
 {
   "Name": "PALM TOO 840 2 AVENUE New York NY 10017",
   "Lat": 40.7519846,
   "Lng": -73.9697795
 },
 {
   "Name": "REIF'S TAVERN 302 EAST 92 STREET New York NY 10128",
   "Lat": 40.7826039,
   "Lng": -73.9506774
 },
 {
   "Name": "STACKS TAVERN 5723 BROADWAY New York NY 10463",
   "Lat": 40.882807,
   "Lng": -73.902305
 },
 {
   "Name": "COZY CABIN 92-03 ASTORIA BOULEVARD New York NY 11369",
   "Lat": 40.763523,
   "Lng": -73.877098
 },
 {
   "Name": "ARMANDO'S PIZZA 1366 PENNSYLVANIA AVENUE New York NY 11239",
   "Lat": 40.6481048,
   "Lng": -73.8821858
 },
 {
   "Name": "CAFE CAPRI 427 GRAHAM AVENUE New York NY 11211",
   "Lat": 40.7177182,
   "Lng": -73.9452351
 },
 {
   "Name": "WHITE HORSE TAVERN 25 BRIDGE STREET New York NY 10004",
   "Lat": 40.703721,
   "Lng": -74.012376
 },
 {
   "Name": "CAFFE REGGIO 119 MAC DOUGAL STREET New York NY 10012",
   "Lat": 40.7250632,
   "Lng": -73.9976946
 },
 {
   "Name": "BRUNO BAKERY 506 LA GUARDIA PLACE New York NY 10012",
   "Lat": 40.7285861,
   "Lng": -73.9988199
 },
 {
   "Name": "THE RIVER CAFE 1 WATER STREET New York NY 11201",
   "Lat": 40.703195,
   "Lng": -73.9947228
 },
 {
   "Name": "NECTAR COFFEE SHOP 1022 MADISON AVENUE New York NY 10075",
   "Lat": 40.7762084,
   "Lng": -73.9624221
 },
 {
   "Name": "SEASHORE RESTAURANT 591 CITY ISLAND AVE New York NY 10464",
   "Lat": 40.8541848,
   "Lng": -73.790804
 },
 {
   "Name": "SOUEN RESTAURANT 210 6 AVENUE New York NY 10014",
   "Lat": 40.7366138,
   "Lng": -74.0094471
 },
 {
   "Name": "TINA'S RESTAURANT 1002 FLUSHING AVENUE New York NY 11206",
   "Lat": 40.7035988,
   "Lng": -73.9310977
 },
 {
   "Name": "MCDONALD'S 106-15 71 AVENUE New York NY 11375",
   "Lat": 40.7209975,
   "Lng": -73.8477874
 },
 {
   "Name": "JIMMY'S CORNER 140 WEST 44 STREET New York NY 10036",
   "Lat": 40.7602619,
   "Lng": -73.9932872
 },
 {
   "Name": "FROST RESTAURANT 193 FROST STREET New York NY 11211",
   "Lat": 40.718386,
   "Lng": -73.943476
 },
 {
   "Name": "SAMMY'S STEAKHOUSE 155157 CHRISTIE ST. New York NY 10002",
   "Lat": 40.7411889,
   "Lng": -73.8625586
 },
 {
   "Name": "CLUB METROPOLITAN 146 WEST 57 STREET New York NY 10019",
   "Lat": 40.7686973,
   "Lng": -73.9918181
 },
 {
   "Name": "SANREMO PIZZA 56-01 MYRTLE AVENUE New York NY 11385",
   "Lat": 40.700273,
   "Lng": -73.9063134
 },
 {
   "Name": "EL AZTECA MEXICAN RESTAURANT 783 9 AVENUE New York NY 10019",
   "Lat": 40.7686973,
   "Lng": -73.9918181
 },
 {
   "Name": "LUPE'S EAST L.A. KITCHEN 110 AVENUE OF THE AMERICAS New York NY 10013",
   "Lat": 40.7236625,
   "Lng": -74.0045136
 },
 {
   "Name": "PELLEGRINO'S 138 MULBERRY STREET New York NY 10013",
   "Lat": 40.7186078,
   "Lng": -73.9974152
 },
 {
   "Name": "MCDONALD'S 701 UTICA AVENUE New York NY 11203",
   "Lat": 40.6561975,
   "Lng": -73.9308654
 },
 {
   "Name": "THE DART INN 83-18 PARSONS BOULEVARD New York NY 11432",
   "Lat": 40.715159,
   "Lng": -73.807954
 },
 {
   "Name": "BRONX GRILL 2375 EAST TREMONT AVENUE New York NY 10462",
   "Lat": 40.842586,
   "Lng": -73.855176
 },
 {
   "Name": "WHITE CASTLE 2701 BOSTON POST ROAD New York NY 10467",
   "Lat": 40.8985485,
   "Lng": -73.8984197
 },
 {
   "Name": "VIAND CAFE 1011 MADISON AVENUE New York NY 10075",
   "Lat": 40.7757194,
   "Lng": -73.9623333
 },
 {
   "Name": "TEDDY'S BAR AND GRILL 96 BERRY STREET New York NY 11249",
   "Lat": 40.7193481,
   "Lng": -73.9585056
 },
 {
   "Name": "PECULIAR PUB 145 BLEECKER STREET New York NY 10012",
   "Lat": 40.728378,
   "Lng": -73.999058
 },
 {
   "Name": "P & K'S GRILL 170 WEST 231 STREET New York NY 10463",
   "Lat": 40.8803247,
   "Lng": -73.9095279
 },
 {
   "Name": "MCDONALD'S 576581 BROADWAY New York NY 10463",
   "Lat": 40.8990731,
   "Lng": -73.8972107
 },
 {
   "Name": "SPARKS STEAK HOUSE 210 EAST 46 STREET New York NY 10017",
   "Lat": 40.7519846,
   "Lng": -73.9697795
 },
 {
   "Name": "DAN TEMPURA 2018 BROADWAY New York NY 10023",
   "Lat": 40.7760336,
   "Lng": -73.9818416
 },
 {
   "Name": "THE CUPPING ROOM 359 WEST BROADWAY New York NY 10013",
   "Lat": 40.7230523,
   "Lng": -74.0031757
 },
 {
   "Name": "ARTURO'S PIZZA 5189A BROADWAY New York NY 10463",
   "Lat": 40.8745536,
   "Lng": -73.9103979
 },
 {
   "Name": "THE BROOK 111 EAST 54 STREET New York NY 10022",
   "Lat": 40.6370329,
   "Lng": -74.082612
 },
 {
   "Name": "BURGER KING 22210 NORTHERN BOULEVARD New York NY 11361",
   "Lat": 40.761574,
   "Lng": -73.759249
 },
 {
   "Name": "WHITE CASTLE 43-02 QUEENS BOULEVARD New York NY 11104",
   "Lat": 40.789987,
   "Lng": -73.829578
 },
 {
   "Name": "WHITE CASTLE 4202 FT HAMILTON PARKWAY New York NY 11219",
   "Lat": 40.6359637,
   "Lng": -74.0012398
 },
 {
   "Name": "STEVE'S COFFEE SHOP 403416 2ND ST New York NY 11358",
   "Lat": 40.7983881,
   "Lng": -73.8219843
 },
 {
   "Name": "THE NEW AMITY RESTAURANT 1134 MADISON AVENUE New York NY 10028",
   "Lat": 40.7798381,
   "Lng": -73.9598324
 },
 {
   "Name": "VOLARE RESTAURANT 147 WEST FOURTH STREET New York NY 10012",
   "Lat": 40.7315763,
   "Lng": -74.0004126
 },
 {
   "Name": "PIZZA TOWN 1827 COLLEGE POINT BOULEVARD New York NY 11356",
   "Lat": 40.782347,
   "Lng": -73.845596
 },
 {
   "Name": "MCDONALD'S 427 10 AVENUE New York NY 10001",
   "Lat": 40.7536854,
   "Lng": -73.9991637
 },
 {
   "Name": "GREEN PAVILION RESTAURANT & SPORTS LOUNGE 4307 18 AVENUE New York NY 11218",
   "Lat": 40.6483744,
   "Lng": -73.9800645
 },
 {
   "Name": "EL QUIJOTE 226 WEST 23 STREET New York NY 10011",
   "Lat": 40.7464969,
   "Lng": -74.0094471
 },
 {
   "Name": "PETES PIZZERIA & RESTAURANT 7522 3 AVENUE New York NY 11209",
   "Lat": 40.6212119,
   "Lng": -74.0329499
 },
 {
   "Name": "OLIVE TREE CAFE & COMEDY CELLAR 117 MAC DOUGAL STREET New York NY 10012",
   "Lat": 40.7250632,
   "Lng": -73.9976946
 },
 {
   "Name": "T.G.I. FRIDAY'S 47 BROADWAY @ TRINITY PL New York NY 10006",
   "Lat": 40.7082844,
   "Lng": -74.012644
 },
 {
   "Name": "SOB's 200 VARICK STREET New York NY 10014",
   "Lat": 40.7281648,
   "Lng": -74.0051398
 },
 {
   "Name": "IL MULINO 86 WEST 3 STREET New York NY 10012",
   "Lat": 40.7250632,
   "Lng": -73.9976946
 },
 {
   "Name": "MCDONALD'S 5804 CLARENDON ROAD New York NY 11203",
   "Lat": 40.6447605,
   "Lng": -73.9216641
 },
 {
   "Name": "THE MALT HOUSE 206 THOMPSON STREET New York NY 10012",
   "Lat": 40.7286288,
   "Lng": -73.9993545
 },
 {
   "Name": "IHOP 5655 BROADWAY New York NY 10463",
   "Lat": 40.8805903,
   "Lng": -73.9035501
 },
 {
   "Name": "MUGHLAI RESTAURANT 320 COLUMBUS AVENUE New York NY 10023",
   "Lat": 40.779593,
   "Lng": -73.977597
 },
 {
   "Name": "MANDUCATIS 1327 JACKSON AVENUE New York NY 11101",
   "Lat": 40.7445755,
   "Lng": -73.9491317
 },
 {
   "Name": "CAPTAIN'S KETCH 70 PINE STREET New York NY 10270",
   "Lat": 40.7063514,
   "Lng": -74.0075589
 },
 {
   "Name": "JIM BRADY'S RESTAURANT 75 MAIDEN LANE New York NY 10038",
   "Lat": 40.7077614,
   "Lng": -74.0075542
 },
 {
   "Name": "HOLLAND BAR 532 9 AVENUE New York NY 10018",
   "Lat": 40.755322,
   "Lng": -73.9932872
 },
 {
   "Name": "THE PIZZA PLACE 1665 METROPOLITAN AVENUE New York NY 10462",
   "Lat": 40.8405986,
   "Lng": -73.8555472
 },
 {
   "Name": "ROSSINI'S 108 EAST 38 STREET New York NY 10016",
   "Lat": 40.74727,
   "Lng": -73.9800645
 },
 {
   "Name": "PAT'S STATIONARY 49-20 30 AVENUE New York NY 11377",
   "Lat": 40.7413334,
   "Lng": -73.9036487
 },
 {
   "Name": "SLY FOX INN 177-23 UNION TURNPIKE New York NY 11366",
   "Lat": 40.7262418,
   "Lng": -73.7904386
 },
 {
   "Name": "MARINER INN 3501 AVENUE S New York NY 11234",
   "Lat": 40.6095049,
   "Lng": -73.9321498
 },
 {
   "Name": "LA RIPAILLE RESTAURANT 605 HUDSON STREET New York NY 10014",
   "Lat": 40.7372653,
   "Lng": -74.0060152
 },
 {
   "Name": "JACKIES 5TH AMENDMENT 404 5 AVENUE New York NY 11215",
   "Lat": 40.6681669,
   "Lng": -73.9800645
 },
 {
   "Name": "WATER FRONT CRAB HOUSE 203 BORDEN AVENUE New York NY 11101",
   "Lat": 40.7383032,
   "Lng": -73.9393469
 },
 {
   "Name": "BAR VETRO 222 EAST 58 STREET New York NY 10022",
   "Lat": 40.7593941,
   "Lng": -73.9697795
 },
 {
   "Name": "CHEZ NAPOLEAN 365 WEST 50 STREET New York NY 10019",
   "Lat": 40.7686973,
   "Lng": -73.9918181
 },
 {
   "Name": "SPOTO'S RESTAURANT 4005 EAST TREMONT AVENUE New York NY 10465",
   "Lat": 40.8203913,
   "Lng": -73.8177789
 },
 {
   "Name": "WHITE CASTLE 781 METROPOLITAN AVENUE New York NY 11211",
   "Lat": 40.8343555,
   "Lng": -73.8610668
 },
 {
   "Name": "TOKUBEI 86 314 EAST 86 STREET New York NY 10028",
   "Lat": 40.7766412,
   "Lng": -73.9521468
 },
 {
   "Name": "VETERANS OF FOREIGN WARS POST #107 CANTEEN 2414 GERRITSEN AVENUE New York NY 11229",
   "Lat": 40.598023,
   "Lng": -73.931262
 },
 {
   "Name": "CARUSO PIZZA #2 1 PENN PLAZA New York NY 10119",
   "Lat": 40.7511286,
   "Lng": -73.992471
 },
 {
   "Name": "TROPICAL HOUSE BAKING CO. 267 SCHENECTADY AVENUE New York NY 11213",
   "Lat": 40.669476,
   "Lng": -73.933605
 },
 {
   "Name": "LA VILLA DE PIZZA & RESTAURANT 82-07 153 AVENUE New York NY 11414",
   "Lat": 40.6616787,
   "Lng": -73.8477874
 },
 {
   "Name": "KODAMA SUSHI 301 WEST 45 STREET New York NY 10036",
   "Lat": 40.7602619,
   "Lng": -73.9932872
 },
 {
   "Name": "BURGER KING 154-05 ROCKAWAY BOULEVARD New York NY 11434",
   "Lat": 40.667935,
   "Lng": -73.780318
 },
 {
   "Name": "CLINTON RESTAURANT 917 CLINTONVILLE STREET New York NY 11357",
   "Lat": 40.793143,
   "Lng": -73.812731
 },
 {
   "Name": "MCDONALD'S 221-28 HORACE HARDING EX New York NY 11364",
   "Lat": 40.7469886,
   "Lng": -73.7536695
 },
 {
   "Name": "BELLA LUNA 584 COLUMBUS AVENUE New York NY 10024",
   "Lat": 40.7881015,
   "Lng": -73.9712896
 },
 {
   "Name": "DALLAS BBQ 132 SECOND AVENUE New York NY 10003",
   "Lat": 40.7322535,
   "Lng": -73.9874105
 },
 {
   "Name": "CANDLE BAR 309 AMSTERDAM AVENUE New York NY 10023",
   "Lat": 40.7801316,
   "Lng": -73.9801846
 },
 {
   "Name": "KOSHER DELIGHT 1223 AVENUE J New York NY 11230",
   "Lat": 40.625169,
   "Lng": -73.9633849
 },
 {
   "Name": "THE FOUR SEASONS 99 EAST 52 STREET New York NY 10022",
   "Lat": 40.7593941,
   "Lng": -73.9697795
 },
 {
   "Name": "YANKEE JZ PIZZA 1599 WESTCHESTER AVENUE New York NY 10472",
   "Lat": 40.8292271,
   "Lng": -73.8755851
 },
 {
   "Name": "SAKEBAR DECIBEL 240 EAST 9 STREET New York NY 10003",
   "Lat": 40.7322535,
   "Lng": -73.9874105
 },
 {
   "Name": "BAGEL CAFE 2214 BARTOW AVE New York NY 10475",
   "Lat": 40.8689148,
   "Lng": -73.8232768
 },
 {
   "Name": "SAC'S PIZZA PLACE 25-41 BROADWAY New York NY 11106",
   "Lat": 40.7629397,
   "Lng": -73.9270272
 },
 {
   "Name": "GOLDEN DOVE DINER 3281 RICHMOND AVENUE New York NY 10312",
   "Lat": 40.558984,
   "Lng": -74.16895
 },
 {
   "Name": "VILLA BERULIA 107 EAST 34 STREET New York NY 10016",
   "Lat": 40.74727,
   "Lng": -73.9800645
 },
 {
   "Name": "VICTOR'S CAFE 236 WEST 52 STREET New York NY 10019",
   "Lat": 40.7686973,
   "Lng": -73.9918181
 },
 {
   "Name": "BURGER KING 14474 NORTHERN BOULEVARD New York NY 11354",
   "Lat": 40.764694,
   "Lng": -73.820782
 },
 {
   "Name": "LUCKY STRIKE 59 GRAND STREET New York NY 10013",
   "Lat": 40.7217861,
   "Lng": -74.0094471
 },
 {
   "Name": "TOM'S RESTAURANT 2880 BROADWAY New York NY 10025",
   "Lat": 40.7999209,
   "Lng": -73.9683102
 },
 {
   "Name": "JACKSON HOLE 1611 SECOND AVENUE New York NY 10028",
   "Lat": 40.776404,
   "Lng": -73.953208
 },
 {
   "Name": "VINNY'S FAMOUS PIZZA 2119 GRAND CONCOURSE New York NY 10453",
   "Lat": 40.8545577,
   "Lng": -73.9024234
 },
 {
   "Name": "WAR MEMORIAL ICE SKATING RINK 0 MEMORIAL ICE SKATING New York NY 10314",
   "Lat": 40.5952146,
   "Lng": -74.1827119
 },
 {
   "Name": "WENDY'S BAR 123 GREENPOINT AVENUE New York NY 11222",
   "Lat": 40.73035,
   "Lng": -73.955171
 },
 {
   "Name": "TOMOE SHUSHI 172 THOMPSON STREET New York NY 10012",
   "Lat": 40.7276736,
   "Lng": -74.0001023
 },
 {
   "Name": "SUNSET PIZZERIA 645 ROSSVILLE AVENUE New York NY 10309",
   "Lat": 40.542677,
   "Lng": -74.207746
 },
 {
   "Name": "UNO CHICAGO GRILL 39-02 BELL BOULEVARD New York NY 11361",
   "Lat": 40.7652595,
   "Lng": -73.7718905
 },
 {
   "Name": "ROSA'S PIZZA 5526 69 STREET New York NY 11378",
   "Lat": 40.7224092,
   "Lng": -73.9095279
 },
 {
   "Name": "BURKE'S PUB 69-47 GRAND AVENUE New York NY 11378",
   "Lat": 40.726984,
   "Lng": -73.894071
 },
 {
   "Name": "HILL TAP TAVERN 8303 GRAND AVENUE New York NY 11373",
   "Lat": 40.733269,
   "Lng": -73.884337
 },
 {
   "Name": "PONGSRI THAI RESTAURANT 244 WEST 48 STREET New York NY 10036",
   "Lat": 40.7602619,
   "Lng": -73.9932872
 },
 {
   "Name": "JACKSON HOLE 521 THIRD AVENUE New York NY 10016",
   "Lat": 40.7461444,
   "Lng": -73.9774801
 },
 {
   "Name": "AUNT BELLA'S REST OF LITTLE NECK 46-19 MARATHON PARKWAY New York NY 11362",
   "Lat": 40.767005,
   "Lng": -73.7363139
 },
 {
   "Name": "NORTH SHORE DINER 19652 NORTHERN BLVD New York NY 11358",
   "Lat": 40.7577557,
   "Lng": -73.7842007
 },
 {
   "Name": "KASTELI II 372 8 AVENUE New York NY 10001",
   "Lat": 40.7536854,
   "Lng": -73.9991637
 },
 {
   "Name": "MCDONALD'S 72-69 KISSENA BOULEVARD New York NY 11367",
   "Lat": 40.727543,
   "Lng": -73.8122829
 },
 {
   "Name": "AH! CHIHUAHUA 330 EAST 53 STREET New York NY 10022",
   "Lat": 40.7593941,
   "Lng": -73.9697795
 },
 {
   "Name": "AUSTIN HOUSE 72-04 AUSTIN STREET New York NY 11375",
   "Lat": 40.7209068,
   "Lng": -73.8463708
 },
 {
   "Name": "WHARF BAR AND GRILL 416 BEACH 116 STREET New York NY 11694",
   "Lat": 40.5722132,
   "Lng": -73.8624893
 },
 {
   "Name": "RED ROSE 315 SMITH STREET New York NY 11231",
   "Lat": 40.681185,
   "Lng": -73.9940325
 },
 {
   "Name": "OMONIA CAFE 3220 BROADWAY New York NY 11106",
   "Lat": 40.761089,
   "Lng": -73.924072
 },
 {
   "Name": "POMODORO RISTORANTE 51 SPRING STREET New York NY 10012",
   "Lat": 40.7220937,
   "Lng": -73.9963857
 },
 {
   "Name": "CLEOPATRA'S NEEDLE 2483 BROADWAY New York NY 10025",
   "Lat": 40.7922925,
   "Lng": -73.9732585
 },
 {
   "Name": "BARFLY 244 3 AVENUE New York NY 10010",
   "Lat": 40.7388319,
   "Lng": -73.9815337
 },
 {
   "Name": "HAVELI 100 SECOND AVENUE New York NY 10003",
   "Lat": 40.727111,
   "Lng": -73.988342
 },
 {
   "Name": "OZONE PIZZERIA 96-15 LIBERTY AVENUE New York NY 11417",
   "Lat": 40.680887,
   "Lng": -73.842597
 },
 {
   "Name": "THE CLUBHOUSE 6121 FRESH POND ROAD New York NY 11379",
   "Lat": 40.7138022,
   "Lng": -73.9009385
 },
 {
   "Name": "UNION HALL 502 HENDERSON AVENUE New York NY 10310",
   "Lat": 40.6379003,
   "Lng": -74.1093101
 },
 {
   "Name": "HENRY'S END 44 HENRY STREET New York NY 11201",
   "Lat": 40.699702,
   "Lng": -73.992182
 },
 {
   "Name": "MONTE'S 97 MACDOUGAL STREET New York NY 10012",
   "Lat": 40.729583,
   "Lng": -74.001094
 },
 {
   "Name": "DUNKIN' DONUTS 4090 BOSTON POST ROAD New York NY 10475",
   "Lat": 40.8985485,
   "Lng": -73.8984197
 },
 {
   "Name": "O'FLANAGAN'S 1215 1 AVENUE New York NY 10065",
   "Lat": 40.7645239,
   "Lng": -73.9624327
 },
 {
   "Name": "VILLA BARONE MANOR 737 THROGS NECK EXPRESSWAY New York NY 10465",
   "Lat": 40.8287274,
   "Lng": -73.8190891
 },
 {
   "Name": "RACCOON LODGE 59 WARREN STREET New York NY 10007",
   "Lat": 40.7146375,
   "Lng": -74.0095812
 },
 {
   "Name": "KING'S ARMS RESTAURANT 500 FOREST AVENUE New York NY 10310",
   "Lat": 40.63021,
   "Lng": -74.10708
 },
 {
   "Name": "THE GREEK CORNER 322 7 AVENUE New York NY 10001",
   "Lat": 40.7536854,
   "Lng": -73.9991637
 },
 {
   "Name": "ASTRO RESTAURANT 101 WEST 55 STREET New York NY 10019",
   "Lat": 40.7686973,
   "Lng": -73.9918181
 },
 {
   "Name": "HASAKI RESTAURANT 210 EAST 9 TH STREET New York NY 10003",
   "Lat": 40.7322535,
   "Lng": -73.9874105
 },
 {
   "Name": "IMPERIAL COFFEE HOUSE 108 CHAMBERS STREET New York NY 10007",
   "Lat": 40.7148452,
   "Lng": -74.0082408
 },
 {
   "Name": "MEZZALUNA 1295 THIRD AVENUE New York NY 10021",
   "Lat": 40.7711518,
   "Lng": -73.9592566
 },
 {
   "Name": "AQUEDUCT NORTH 4277 KATONAH AVE New York NY 10470",
   "Lat": 40.8977829,
   "Lng": -73.8675389
 },
 {
   "Name": "LINDY'S 825 7 AVENUE New York NY 10019",
   "Lat": 40.7686973,
   "Lng": -73.9918181
 },
 {
   "Name": "FELIDIA RESTAURANT 243 EAST 58 STREET New York NY 10022",
   "Lat": 40.7593941,
   "Lng": -73.9697795
 },
 {
   "Name": "THE BITTER END 147 BLEECKER STREET New York NY 10012",
   "Lat": 40.7250632,
   "Lng": -73.9976946
 },
 {
   "Name": "ARRIBA ARRIBA 762 9 AVENUE New York NY 10019",
   "Lat": 40.7686973,
   "Lng": -73.9918181
 },
 {
   "Name": "GEIDO RESTAURANT 331 FLATBUSH AVENUE New York NY 11217",
   "Lat": 40.6779037,
   "Lng": -73.9726244
 },
 {
   "Name": "JOEY'S PLACE 84-14 ASTORIA BOULEVARD New York NY 11370",
   "Lat": 40.764499,
   "Lng": -73.8846002
 },
 {
   "Name": "LOUI SEAFOOD 347478 EAST TREMONT AVENUE New York NY 10465",
   "Lat": 40.824629,
   "Lng": -73.8203476
 },
 {
   "Name": "TEVERE 84 155 EAST 84 STREET New York NY 10028",
   "Lat": 40.7766412,
   "Lng": -73.9521468
 },
 {
   "Name": "PISA PIZZERIA 65-68 MYRTLE AVENUE New York NY 11385",
   "Lat": 40.701087,
   "Lng": -73.888099
 },
 {
   "Name": "RIVERHEAD GENTLEMEN'S CLUB 45-08 VERNON BOULEVARD New York NY 11101",
   "Lat": 40.748421,
   "Lng": -73.9524969
 },
 {
   "Name": "WINDJAMMERS BAR 552 GRANDVIEW AVENUE New York NY 11385",
   "Lat": 40.7090773,
   "Lng": -73.9070012
 },
 {
   "Name": "SCOTTY'S DINER 336 LEXINGTON AVENUE New York NY 10016",
   "Lat": 40.749781,
   "Lng": -73.977572
 },
 {
   "Name": "MCDONALD'S 22-50 31 STREET New York NY 11105",
   "Lat": 40.7787902,
   "Lng": -73.9065883
 },
 {
   "Name": "KABAB CAFE 25-12 STEINWAY STREET New York NY 11103",
   "Lat": 40.767691,
   "Lng": -73.912205
 },
 {
   "Name": "PORTOFINO 10932 ASCAN AVENUE New York NY 11375",
   "Lat": 40.7192033,
   "Lng": -73.8398711
 },
 {
   "Name": "VICTORIA PIZZA 2716 GERRITSEN AVENUE New York NY 11229",
   "Lat": 40.5928574,
   "Lng": -73.9254815
 },
 {
   "Name": "MANATUS RESTAURANT 340 BLEECKER STREET New York NY 10014",
   "Lat": 40.7337333,
   "Lng": -74.0046953
 },
 {
   "Name": "BELAIRE CAFE 525 EAST 71 STREET New York NY 10021",
   "Lat": 40.7700703,
   "Lng": -73.9580246
 },
 {
   "Name": "FAME DINER 6967 GRAND AVENUE New York NY 11378",
   "Lat": 40.727152,
   "Lng": -73.8933424
 },
 {
   "Name": "TURKEY'S NEST TAVERN 94 BEDFORD AVENUE New York NY 11249",
   "Lat": 40.7206387,
   "Lng": -73.9550857
 },
 {
   "Name": "CASA BELLA 127 MULBERRY STREET New York NY 10013",
   "Lat": 40.7180815,
   "Lng": -73.9982079
 },
 {
   "Name": "NEW DINETTE 187 PORT RICHMOND AVENUE New York NY 10302",
   "Lat": 40.636612,
   "Lng": -74.1339799
 },
 {
   "Name": "GOTHAM BAR & GRILL 12 EAST 12 STREET New York NY 10003",
   "Lat": 40.7322535,
   "Lng": -73.9874105
 },
 {
   "Name": "SANTA FE GRILL & BAR 62 7 AVENUE New York NY 11217",
   "Lat": 40.6830069,
   "Lng": -73.9800645
 },
 {
   "Name": "CAFFE VIVALDI 32 JONES STREET New York NY 10014",
   "Lat": 40.7317316,
   "Lng": -74.0029805
 },
 {
   "Name": "TOMMY'S PIZZA 4033 EAST TREMONT AVENUE New York NY 10465",
   "Lat": 40.8196018,
   "Lng": -73.8173629
 },
 {
   "Name": "LA FE RESTAURANT 941 4 AVENUE New York NY 11232",
   "Lat": 40.6560436,
   "Lng": -74.0079781
 },
 {
   "Name": "3 GUYS 1381 MADISON AVENUE New York NY 10029",
   "Lat": 40.787312,
   "Lng": -73.9538783
 },
 {
   "Name": "THE BEEKMAN 15 BEEKMAN STREET New York NY 10038",
   "Lat": 40.710833,
   "Lng": -74.005556
 },
 {
   "Name": "ROGERS IRISH TAVERN 203 BEACH 116 STREET New York NY 11694",
   "Lat": 40.5722132,
   "Lng": -73.8624893
 },
 {
   "Name": "VILLA FIORITA 7720 18 AVENUE New York NY 11214",
   "Lat": 40.6042332,
   "Lng": -74.0025999
 },
 {
   "Name": "VEGAS DINER 1619 86 STREET New York NY 11214",
   "Lat": 40.6042332,
   "Lng": -74.0025999
 },
 {
   "Name": "MOM'S FRIED CHICKEN 253 EAST 167 STREET New York NY 10456",
   "Lat": 40.8310224,
   "Lng": -73.9095279
 },
 {
   "Name": "DELMONICO'S KITCHEN 207 WEST 36 STREET New York NY 10018",
   "Lat": 40.755322,
   "Lng": -73.9932872
 },
 {
   "Name": "RESTUARANT NIPPON 155 EAST 52 STREET New York NY 10022",
   "Lat": 40.7593941,
   "Lng": -73.9697795
 },
 {
   "Name": "TOKYA 40 EAST 58 STREET New York NY 10022",
   "Lat": 40.7593941,
   "Lng": -73.9697795
 },
 {
   "Name": "WHITE CASTLE 8802 NORTHERN BOULEVARD New York NY 11372",
   "Lat": 40.7560944,
   "Lng": -73.8797196
 },
 {
   "Name": "LUSARDI'S RESTAURANT 1494 SECOND AVENUE New York NY 10075",
   "Lat": 40.772368,
   "Lng": -73.955387
 },
 {
   "Name": "TORTILLA FLATS 767 WASHINGTON STREET New York NY 10014",
   "Lat": 40.737446,
   "Lng": -74.0079669
 },
 {
   "Name": "BAR 515 515 3 AVENUE New York NY 10016",
   "Lat": 40.74727,
   "Lng": -73.9800645
 },
 {
   "Name": "CUCHIFRITOS 158 E. 188 TH ST New York NY 10468",
   "Lat": 40.8687887,
   "Lng": -73.8977693
 },
 {
   "Name": "LILY'S BAR @ ROGER SMITH HOTEL 501 LEXINGTON AVENUE New York NY 10017",
   "Lat": 40.7519846,
   "Lng": -73.9697795
 },
 {
   "Name": "LA STRADA RESTAURANT 139 NEW DORP LANE New York NY 10306",
   "Lat": 40.573835,
   "Lng": -74.11557
 },
 {
   "Name": "SUTTON CAFE RESTAURANT 1026 FIRST AVENUE New York NY 10022",
   "Lat": 40.7577488,
   "Lng": -73.9630363
 },
 {
   "Name": "KARAVAS PLACE 162 WEST 4 STREET New York NY 10014",
   "Lat": 40.7366138,
   "Lng": -74.0094471
 },
 {
   "Name": "THE GROTTO 69 NEW STREET New York NY 10004",
   "Lat": 40.7058609,
   "Lng": -74.0122263
 },
 {
   "Name": "TONY'S PIZZERIA 1412 ST JOHNS PLACE New York NY 11213",
   "Lat": 40.6705939,
   "Lng": -73.9315031
 },
 {
   "Name": "BLUE NOTE JAZZ 131 WEST 3 STREET New York NY 10012",
   "Lat": 40.7250632,
   "Lng": -73.9976946
 },
 {
   "Name": "TRIPOLI RESTAURANT 156 ATLANTIC AVENUE New York NY 11201",
   "Lat": 40.690043,
   "Lng": -73.9946329
 },
 {
   "Name": "BEYOGLU 200 EAST 81 STREET New York NY 10028",
   "Lat": 40.7766412,
   "Lng": -73.9521468
 },
 {
   "Name": "FLASH DANCERS 1674 BROADWAY New York NY 10019",
   "Lat": 40.7628094,
   "Lng": -73.982872
 },
 {
   "Name": "PIZZA D'ORO 3115 VICTORY BOULEVARD New York NY 10314",
   "Lat": 40.607432,
   "Lng": -74.163066
 },
 {
   "Name": "MONTERO BAR & GRILL 73 ATLANTIC AVENUE New York NY 11201",
   "Lat": 40.6914024,
   "Lng": -73.9979536
 },
 {
   "Name": "CHEZ JAQUELINE 72 MAC DOUGAL STREET New York NY 10012",
   "Lat": 40.7250632,
   "Lng": -73.9976946
 },
 {
   "Name": "DUNKIN' DONUTS 87-77 PARSONS BOULEVARD New York NY 11432",
   "Lat": 40.707304,
   "Lng": -73.80218
 },
 {
   "Name": "PORT O' CALLS 9310 WOODHAVEN BOULEVARD New York NY 11421",
   "Lat": 40.68817,
   "Lng": -73.849447
 },
 {
   "Name": "GANDHI 345 EAST 6 STREET New York NY 10003",
   "Lat": 40.7322535,
   "Lng": -73.9874105
 },
 {
   "Name": "OMEGA COFFEE SHOP 200-07 32 AVENUE New York NY 11361",
   "Lat": 40.7622954,
   "Lng": -73.7742616
 },
 {
   "Name": "FRIEND OF A FARMER 77 IRVING PLACE New York NY 10003",
   "Lat": 40.7322535,
   "Lng": -73.9874105
 },
 {
   "Name": "AMSTERDAM RESTAURANT & TAPAS LOUNGE 1207 AMSTERDAM AVENUE New York NY 10027",
   "Lat": 40.8088612,
   "Lng": -73.9592644
 },
 {
   "Name": "JOHN & JOE PIZZERIA & RESTAURANT 749 LYDIG AVENUE New York NY 10462",
   "Lat": 40.8544744,
   "Lng": -73.8657838
 },
 {
   "Name": "ROSA MEXICANO 1063 FIRST AVENUE New York NY 10022",
   "Lat": 40.7593941,
   "Lng": -73.9697795
 },
 {
   "Name": "NUEVA VILLA CHINA RESTAURANT 3910 103 STREET New York NY 11368",
   "Lat": 40.7506343,
   "Lng": -73.8477874
 },
 {
   "Name": "JAIYA THAI ORIENTAL RESTAURANT 396 THIRD AVENUE New York NY 10016",
   "Lat": 40.7422324,
   "Lng": -73.9809909
 },
 {
   "Name": "KANG SUH KOREAN RESTAURANT 1250 BROADWAY New York NY 10001",
   "Lat": 40.7478473,
   "Lng": -73.9879627
 },
 {
   "Name": "KNIGHTS OF BARON DEKALB 3000 EMMONS AVENUE New York NY 11235",
   "Lat": 40.5834295,
   "Lng": -73.9382549
 },
 {
   "Name": "VESELKA RESTAURANT 144 SECOND AVENUE New York NY 10003",
   "Lat": 40.7322535,
   "Lng": -73.9874105
 },
 {
   "Name": "AMELIA'S RESTAURANT 110 VARICK STREET New York NY 10013",
   "Lat": 40.7244893,
   "Lng": -74.0057744
 },
 {
   "Name": "NATIONAL RESTAURANT & CATERING 273 BRIGHTON BEACH AVENUE New York NY 11235",
   "Lat": 40.577193,
   "Lng": -73.964872
 },
 {
   "Name": "MCDONALD'S 7002 COPPER AVENUE New York NY 11385",
   "Lat": 40.6980708,
   "Lng": -73.8948295
 },
 {
   "Name": "UTOPIA RESTAURANT 267 AMSTERDAM AVENUE New York NY 10023",
   "Lat": 40.7788729,
   "Lng": -73.9811382
 },
 {
   "Name": "VESUVIO RESTAURANT & PIZZA 7303 3 AVENUE New York NY 11209",
   "Lat": 40.6212119,
   "Lng": -74.0329499
 },
 {
   "Name": "TERRA BLUES 149 BLEEKER STREET New York NY 10012",
   "Lat": 40.7250632,
   "Lng": -73.9976946
 },
 {
   "Name": "COOPER TOWN DINER 339 1 AVENUE New York NY 10003",
   "Lat": 40.7322535,
   "Lng": -73.9874105
 },
 {
   "Name": "EUROPA GO-GO DANCING 9402 SUTPHIN BOULEVARD New York NY 11435",
   "Lat": 40.6988,
   "Lng": -73.807086
 },
 {
   "Name": "CAFE LUXEMBOURG 200 WEST 70 STREET New York NY 10023",
   "Lat": 40.7769059,
   "Lng": -73.9800645
 },
 {
   "Name": "DUNKIN' DONUTS/BASKIN' ROBBINS 153-67 HORACE HARDING EXPRESSWAY New York NY 11367",
   "Lat": 40.739521,
   "Lng": -73.815472
 },
 {
   "Name": "BROADWAY RESTAURANT 2664 BROADWAY New York NY 10025",
   "Lat": 40.7979687,
   "Lng": -73.9689746
 },
 {
   "Name": "EAST RIVER COFFEE SHOP Oct-50 44 DRIVE New York NY 11101",
   "Lat": 40.7443091,
   "Lng": -73.9418603
 },
 {
   "Name": "Cafe Edison 228 WEST 47 STREET New York NY 10036",
   "Lat": 40.7602619,
   "Lng": -73.9932872
 },
 {
   "Name": "PONTICELLO RESTAURANT 46-11 BROADWAY New York NY 11103",
   "Lat": 40.756706,
   "Lng": -73.913591
 },
 {
   "Name": "CUCHIFRITO 168 EAST 116 STREET New York NY 10029",
   "Lat": 40.7916407,
   "Lng": -73.9447994
 },
 {
   "Name": "IL CANTINORI RESTAURAUNT 32 EAST 10 STREET New York NY 10003",
   "Lat": 40.7322535,
   "Lng": -73.9874105
 },
 {
   "Name": "AMSTERDAM BILLIARDS 85 4 AVENUE New York NY 10003",
   "Lat": 40.7322535,
   "Lng": -73.9874105
 },
 {
   "Name": "JIMBO'S HAMBURGER PLACE 991 FIRST AVENUE New York NY 10022",
   "Lat": 40.7567359,
   "Lng": -73.964379
 },
 {
   "Name": "VA BENE 1589 SECOND AVENUE New York NY 10028",
   "Lat": 40.775695,
   "Lng": -73.953676
 },
 {
   "Name": "MIKE'S PUB 7919 JAMAICA AVENUE New York NY 11421",
   "Lat": 40.692296,
   "Lng": -73.86264
 },
 {
   "Name": "REX MANOR 1100 60 STREET New York NY 11219",
   "Lat": 40.7006614,
   "Lng": -73.7810852
 },
 {
   "Name": "CLUB 101 101 PARK AVENUE New York NY 10017",
   "Lat": 40.7510482,
   "Lng": -73.9778609
 },
 {
   "Name": "ISLAND 1305 MADISON AVENUE New York NY 10128",
   "Lat": 40.784903,
   "Lng": -73.955542
 },
 {
   "Name": "LEFKOS PYGOS CAFE 2285 31 STREET New York NY 11105",
   "Lat": 40.7787902,
   "Lng": -73.9065883
 },
 {
   "Name": "SALUMERIA BEILLESE/ BIRICCHINO REST 378 8 AVENUE New York NY 10001",
   "Lat": 40.7536854,
   "Lng": -73.9991637
 },
 {
   "Name": "ANDREWS COFFEE SHOP 463 7 AVENUE New York NY 10018",
   "Lat": 40.755322,
   "Lng": -73.9932872
 },
 {
   "Name": "WHITE CASTLE 959 ATLANTIC AVENUE New York NY 11238",
   "Lat": 40.6805698,
   "Lng": -73.9605993
 },
 {
   "Name": "FLAMINGO 85-12 ROOSEVELT AVENUE New York NY 11372",
   "Lat": 40.7479783,
   "Lng": -73.8805744
 },
 {
   "Name": "CHARLIE'S MOM CHINESE RESTAURANT 464 6 AVENUE New York NY 10011",
   "Lat": 40.7464969,
   "Lng": -74.0094471
 },
 {
   "Name": "BELLA NAPOLI 130 MADISON AVENUE New York NY 10016",
   "Lat": 40.7457939,
   "Lng": -73.984758
 },
 {
   "Name": "CODY'S ALE HOUSE GRILL 154 COURT STREET New York NY 11201",
   "Lat": 40.6887559,
   "Lng": -73.9931261
 },
 {
   "Name": "J.J. BUBBLES 7912 THIRD AVENUE New York NY 11209",
   "Lat": 40.628295,
   "Lng": -74.029397
 },
 {
   "Name": "FITZGERALD'S PUB 336 THIRD AVENUE New York NY 10010",
   "Lat": 40.7400916,
   "Lng": -73.9825799
 },
 {
   "Name": "FAROS RESTAURANT 95 CHURCH AVENUE New York NY 11218",
   "Lat": 40.642916,
   "Lng": -73.979839
 },
 {
   "Name": "PASTA LOVERS TRATTORIA 142 WEST 49 STREET New York NY 10019",
   "Lat": 40.7686973,
   "Lng": -73.9918181
 },
 {
   "Name": "DON GIOVANNI RESTAURANT 214 10 AVENUE New York NY 10011",
   "Lat": 40.7464969,
   "Lng": -74.0094471
 },
 {
   "Name": "PRIMOLA RESTAURANT 1226 SECOND AVENUE New York NY 10065",
   "Lat": 40.7639308,
   "Lng": -73.9616005
 },
 {
   "Name": "ARIRANG HIBACHI STEAK HOUSE 23 NELSON AVENUE New York NY 10308",
   "Lat": 40.5493634,
   "Lng": -74.1506776
 },
 {
   "Name": "THE WATER CLUB 500 EAST 30 STREET New York NY 10016",
   "Lat": 40.74727,
   "Lng": -73.9800645
 },
 {
   "Name": "SALLY & GEORGE'S PLACE 7809 THIRD AVENUE New York NY 11209",
   "Lat": 40.628952,
   "Lng": -74.028453
 },
 {
   "Name": "SHABU TATSU 216 EAST 10 STREET New York NY 10003",
   "Lat": 40.7322535,
   "Lng": -73.9874105
 },
 {
   "Name": "POPEYES CHICKEN & BISCUITS 321 WEST 125 STREET New York NY 10027",
   "Lat": 40.8138912,
   "Lng": -73.9624327
 },
 {
   "Name": "PIZZA PLUS 359 SEVENTH AVENUE New York NY 11215",
   "Lat": 40.6658524,
   "Lng": -73.9821078
 },
 {
   "Name": "WENDY'S 3183 ATLANTIC AVENUE New York NY 11208",
   "Lat": 40.6800308,
   "Lng": -73.8777035
 },
 {
   "Name": "Tasty's 58-02 MYRTLE AVENUE New York NY 11385",
   "Lat": 40.7005594,
   "Lng": -73.9011525
 },
 {
   "Name": "CHINA GRILL 51 WEST 52 STREET New York NY 10019",
   "Lat": 40.7686973,
   "Lng": -73.9918181
 },
 {
   "Name": "DUFFY'S 650 FOREST AVENUE New York NY 10310",
   "Lat": 40.6296883,
   "Lng": -74.1108293
 },
 {
   "Name": "RIVERDALE DINER 3657 KINGSBRIDGE AVENUE New York NY 10463",
   "Lat": 40.885102,
   "Lng": -73.901496
 },
 {
   "Name": "CARLOS PIZZA 7402 METROPOLITAN AVENUE New York NY 11379",
   "Lat": 40.712599,
   "Lng": -73.878099
 },
 {
   "Name": "ANNAM BRAHAM RESTAURANT 8443 164 STREET New York NY 11432",
   "Lat": 40.7154518,
   "Lng": -73.7919103
 },
 {
   "Name": "WESTSIDE RESTAURANT 2020 BROADWAY New York NY 10023",
   "Lat": 40.7763588,
   "Lng": -73.981751
 },
 {
   "Name": "TIBBETT DINER 3033 TIBBETT AVE New York NY 10463",
   "Lat": 40.8804134,
   "Lng": -73.909045
 },
 {
   "Name": "ONCE UPON A TART 135 SULLIVAN STREET New York NY 10012",
   "Lat": 40.726699,
   "Lng": -74.0018599
 },
 {
   "Name": "CHIN CHIN 216 EAST 49 STREET New York NY 10017",
   "Lat": 40.7519846,
   "Lng": -73.9697795
 },
 {
   "Name": "BURRITO LOCO 166 WEST 4 STREET New York NY 10014",
   "Lat": 40.7366138,
   "Lng": -74.0094471
 },
 {
   "Name": "DA UMBERTO RESTAURANT 107 WEST 17 STREET New York NY 10011",
   "Lat": 40.7464969,
   "Lng": -74.0094471
 },
 {
   "Name": "WHITE CASTLE 550 EAST FORDHAM ROAD New York NY 10458",
   "Lat": 40.8588703,
   "Lng": -73.8864787
 },
 {
   "Name": "FLIGHT 151 151 8 AVENUE New York NY 10011",
   "Lat": 40.7464969,
   "Lng": -74.0094471
 },
 {
   "Name": "SYMPOSIUM GREEK RESTAURANT 544 WEST 113 STREET New York NY 10025",
   "Lat": 40.7999209,
   "Lng": -73.9683102
 },
 {
   "Name": "NINA'S RESTAURANT PIZZERIA 635 MEEKER AVE New York NY 11222",
   "Lat": 40.722332,
   "Lng": -73.941306
 },
 {
   "Name": "CHA CHA'S BACKYARD GARDEN BAR & CAFE 113 MULBERRY STREET New York NY 10013",
   "Lat": 40.7176369,
   "Lng": -73.9984957
 },
 {
   "Name": "O'SULLIVAN'S PUB 8902 3 AVENUE New York NY 11209",
   "Lat": 40.6212119,
   "Lng": -74.0329499
 },
 {
   "Name": "PIETROS 232 EAST 43 STREET New York NY 10017",
   "Lat": 40.7519846,
   "Lng": -73.9697795
 },
 {
   "Name": "NOHO STAR RESTAURANT 330 LAFAYETTE STREET New York NY 10012",
   "Lat": 40.7257659,
   "Lng": -73.9950747
 },
 {
   "Name": "PIER 25A RESTAURANT 21516 NORTHERN BOULEVARD New York NY 11361",
   "Lat": 40.7605762,
   "Lng": -73.7669532
 },
 {
   "Name": "MOONSTRUCK EAST 449 THIRD AVENUE New York NY 10016",
   "Lat": 40.743595,
   "Lng": -73.979268
 },
 {
   "Name": "VENICE RESTAURANT 772 EAST 149 STREET New York NY 10455",
   "Lat": 40.8147803,
   "Lng": -73.9080581
 },
 {
   "Name": "KELLY'S PUB 136-11 41 AVENUE New York NY 11355",
   "Lat": 40.7493096,
   "Lng": -73.8213213
 },
 {
   "Name": "SUSPENDERS 111 BROADWAY New York NY 10006",
   "Lat": 40.7085538,
   "Lng": -74.0113323
 },
 {
   "Name": "GLENDA'S RESTAURANT 854 ST JOHNS PLACE New York NY 11216",
   "Lat": 40.6713639,
   "Lng": -73.949912
 },
 {
   "Name": "MY FATHER'S PLACE 1861 CROPSEY AVENUE New York NY 11214",
   "Lat": 40.6018789,
   "Lng": -74.0054509
 },
 {
   "Name": "MCDONALD'S 968 4 AVENUE New York NY 11232",
   "Lat": 40.6560436,
   "Lng": -74.0079781
 },
 {
   "Name": "CORNELIA STREET CAFE 29 CORNELIA STREET New York NY 10014",
   "Lat": 40.7314926,
   "Lng": -74.0024972
 },
 {
   "Name": "LE BERNARDIN 155 WEST 51 STREET New York NY 10019",
   "Lat": 40.7686973,
   "Lng": -73.9918181
 },
 {
   "Name": "BRANDY'S PIANO BAR 235 EAST 84 STREET New York NY 10028",
   "Lat": 40.7766412,
   "Lng": -73.9521468
 },
 {
   "Name": "JACKSON HOLE 517 COLUMBUS AVENUE New York NY 10024",
   "Lat": 40.7857776,
   "Lng": -73.9727148
 },
 {
   "Name": "ROCKING HORSE CAFE 182 8 AVENUE New York NY 10011",
   "Lat": 40.7464969,
   "Lng": -74.0094471
 },
 {
   "Name": "REGENCY HOTEL 540 PARK AVENUE New York NY 10065",
   "Lat": 40.7645497,
   "Lng": -73.9692185
 },
 {
   "Name": "EMPIRE SZECHUAN NOODLE HOUSE 4041 BROADWAY New York NY 10032",
   "Lat": 40.8426994,
   "Lng": -73.9394856
 },
 {
   "Name": "PICCOLO ANGOLO 621 HUDSON STREET New York NY 10014",
   "Lat": 40.7380446,
   "Lng": -74.0058124
 },
 {
   "Name": "NEW GOLD MOUNTAIN RESTAURANT 1925 TURNBULL AVENUE New York NY 10473",
   "Lat": 40.8228129,
   "Lng": -73.8582535
 },
 {
   "Name": "SCALETTA RISTORANTE 50 WEST 77 STREET New York NY 10024",
   "Lat": 40.7859464,
   "Lng": -73.9741874
 },
 {
   "Name": "MATEUS RESTAURANT 222-05 JAMAICA AVENUE New York NY 11428",
   "Lat": 40.720725,
   "Lng": -73.732315
 },
 {
   "Name": "AMNON KOSHER PIZZA 4814 13 AVENUE New York NY 11219",
   "Lat": 40.6310753,
   "Lng": -73.9976946
 },
 {
   "Name": "LEE'S VILLA CHINESE RESTAURANT 152 LAWRENCE STREET New York NY 11201",
   "Lat": 40.6915505,
   "Lng": -73.986446
 },
 {
   "Name": "PJ MORANS 3 EAST 48 STREET New York NY 10017",
   "Lat": 40.7519846,
   "Lng": -73.9697795
 },
 {
   "Name": "FRANKIE & JOHNNIES STEAKHOUSE 269 WEST 45 STREET New York NY 10036",
   "Lat": 40.7602619,
   "Lng": -73.9932872
 },
 {
   "Name": "IL TOSCANO RISTORANTE 42-05 235 STREET New York NY 11363",
   "Lat": 40.7728635,
   "Lng": -73.7448437
 },
 {
   "Name": "BENNYS BURRITOS 111113 GREENWICH AVENUE New York NY 10014",
   "Lat": 40.7371583,
   "Lng": -74.001484
 },
 {
   "Name": "BROOKLYN BOTANIC CATERING HALL 1000 WASHINGTON AVENUE New York NY 11225",
   "Lat": 40.6675708,
   "Lng": -73.9619036
 },
 {
   "Name": "THE CORNELL CENTER OF NEW YORK 6 EAST 44 STREET New York NY 10017",
   "Lat": 40.7519846,
   "Lng": -73.9697795
 },
 {
   "Name": "NECTAR OF 82ND STREET 1090 MADISON AVENUE New York NY 10028",
   "Lat": 40.778213,
   "Lng": -73.9609879
 },
 {
   "Name": "BASKIN ROBBINS 30-08 STEINWAY STREET New York NY 11103",
   "Lat": 40.7633726,
   "Lng": -73.9109977
 },
 {
   "Name": "REAL MADRID RESTAURANT 2073 FOREST AVENUE New York NY 10303",
   "Lat": 40.626607,
   "Lng": -74.158427
 },
 {
   "Name": "CANLON'S RESTAURANT 1825 NORTH RAILROAD AVENUE New York NY 10306",
   "Lat": 40.5651822,
   "Lng": -74.1268188
 },
 {
   "Name": "E.A.T. CAFE 1064 MADISON AVENUE New York NY 10028",
   "Lat": 40.777365,
   "Lng": -73.9616659
 },
 {
   "Name": "E & L BAKERY & COFFEE SHOP 4202 WHITE PLAINS ROAD New York NY 10466",
   "Lat": 40.8936602,
   "Lng": -73.8570686
 },
 {
   "Name": "THE UPPER CRUST 91 HORATIO STREET New York NY 10014",
   "Lat": 40.7388469,
   "Lng": -74.0086962
 },
 {
   "Name": "LAS ISLA RESTAURANT 293 BROADWAY New York NY 11211",
   "Lat": 40.7087235,
   "Lng": -73.9581403
 },
 {
   "Name": "YAMA JAPANESE RESTAURANT' 122 EAST 17 STREET New York NY 10003",
   "Lat": 40.7322535,
   "Lng": -73.9874105
 },
 {
   "Name": "CHADWICK'S 8822 3 AVENUE New York NY 11209",
   "Lat": 40.6212119,
   "Lng": -74.0329499
 },
 {
   "Name": "LA RIVISTA RESTAURANT 313 WEST 46 STREET New York NY 10036",
   "Lat": 40.7602619,
   "Lng": -73.9932872
 },
 {
   "Name": "CAPPUCCINO CAFE 7721 3 AVENUE New York NY 11209",
   "Lat": 40.6212119,
   "Lng": -74.0329499
 },
 {
   "Name": "CAROL'S CAFE 1571 RICHMOND ROAD New York NY 10304",
   "Lat": 40.591243,
   "Lng": -74.101256
 },
 {
   "Name": "PAX WHOLESOME FOODS 80 WEST 40 STREET New York NY 10018",
   "Lat": 40.755322,
   "Lng": -73.9932872
 },
 {
   "Name": "BENNY'S BURRITOS 93 AVENUE A New York NY 10009",
   "Lat": 40.7253886,
   "Lng": -73.9842265
 },
 {
   "Name": "SACCO PIZZA 819 9 AVENUE New York NY 10019",
   "Lat": 40.7686973,
   "Lng": -73.9918181
 },
 {
   "Name": "PETROSSIAN RESTAURAUNT 182 WEST 58 TH STREET New York NY 10019",
   "Lat": 40.7686973,
   "Lng": -73.9918181
 },
 {
   "Name": "AMERICAN AIRLINES EMPLOYEE CAFETERIA 0 LA GUARDIA AIRPORT New York NY 11369",
   "Lat": 40.7659246,
   "Lng": -73.8683697
 },
 {
   "Name": "BECCO 355 WEST 46 STREET New York NY 10036",
   "Lat": 40.7602619,
   "Lng": -73.9932872
 },
 {
   "Name": "DUNKIN' DONUTS 31-14 DITMARS BOULEVARD New York NY 11105",
   "Lat": 40.7756386,
   "Lng": -73.9104336
 },
 {
   "Name": "AUSTIN'S STEAK & ALE HOUSE 82-70 AUSTIN STREET New York NY 11415",
   "Lat": 40.709375,
   "Lng": -73.830072
 },
 {
   "Name": "CLOISTER CAFE 238 EAST 9 STREET New York NY 10003",
   "Lat": 40.7322535,
   "Lng": -73.9874105
 },
 {
   "Name": "DAIRY PALACE 2210 VICTORY BOULEVARD New York NY 10314",
   "Lat": 40.6120134,
   "Lng": -74.136933
 },
 {
   "Name": "IDEAL DONUT 6448 108 STREET New York NY 11375",
   "Lat": 40.7209975,
   "Lng": -73.8477874
 },
 {
   "Name": "SANCHO'S RESTAURANT 7410 3 AVENUE New York NY 11209",
   "Lat": 40.6212119,
   "Lng": -74.0329499
 },
 {
   "Name": "INDIA PASSAGE RESTAURANT 7407 3 AVENUE New York NY 11209",
   "Lat": 40.6212119,
   "Lng": -74.0329499
 },
 {
   "Name": "PHIL & SONS RESTAURANT & PIZZERIA 57-29 MAIN STREET New York NY 11355",
   "Lat": 40.7455939,
   "Lng": -73.825646
 },
 {
   "Name": "FIT CAFETERIA (BUILDING A) 227 WEST 27 STREET New York NY 10001",
   "Lat": 40.7536854,
   "Lng": -73.9991637
 },
 {
   "Name": "TOWNHOUSE OF NY 236 EAST 58 STREET New York NY 10022",
   "Lat": 40.7593941,
   "Lng": -73.9697795
 },
 {
   "Name": "PRIMA PASTA & CAFE 16150 CROSSBAY BOULEVARD New York NY 11414",
   "Lat": 40.7048296,
   "Lng": -73.8160989
 },
 {
   "Name": "QUEEN 84 COURT STREET New York NY 11201",
   "Lat": 40.7088947,
   "Lng": -73.6889774
 },
 {
   "Name": "DREAM PIZZA 3767 JUNCTION BOULEVARD New York NY 11368",
   "Lat": 40.7499216,
   "Lng": -73.8698349
 },
 {
   "Name": "MY THREE SONS RESTAURANT 7121 FT HAMILTON PARKWAY New York NY 11228",
   "Lat": 40.6255162,
   "Lng": -74.0168798
 },
 {
   "Name": "FAGIOLINI 334 LEXINGTON AVENUE New York NY 10016",
   "Lat": 40.7497237,
   "Lng": -73.9775697
 },
 {
   "Name": "MISHIMA RESTAURANT 164 LEXINGTON AVENUE New York NY 10016",
   "Lat": 40.7441474,
   "Lng": -73.9816053
 },
 {
   "Name": "DUNKIN' DONUTS/BASKIN ROBBINS 254-20 HILLSIDE AVENUE New York NY 11004",
   "Lat": 40.7363575,
   "Lng": -73.7128239
 },
 {
   "Name": "VICTORY SWEET SHOP 2169 STEINWAY STREET New York NY 11105",
   "Lat": 40.7730596,
   "Lng": -73.9053992
 },
 {
   "Name": "EASTWOOD MANOR 3371 EASTCHESTER ROAD New York NY 10469",
   "Lat": 40.876183,
   "Lng": -73.846276
 },
 {
   "Name": "ROCCO'S CALAMARI 6408 FT HAMILTON PARKWAY New York NY 11219",
   "Lat": 40.6359637,
   "Lng": -74.0012398
 },
 {
   "Name": "BLIMPIE 273 WEST 125 STREET New York NY 10027",
   "Lat": 40.8138912,
   "Lng": -73.9624327
 },
 {
   "Name": "BROADWAY STATION 30-09 BROADWAY New York NY 11106",
   "Lat": 40.7634234,
   "Lng": -73.9284304
 },
 {
   "Name": "PORTO PRINCE STAR RESTAURANT 221-13 LINDEN BOULEVARD New York NY 11411",
   "Lat": 40.694943,
   "Lng": -73.738695
 },
 {
   "Name": "PANGEA RESTAURANT 178 2 AVENUE New York NY 10003",
   "Lat": 40.7322535,
   "Lng": -73.9874105
 },
 {
   "Name": "AUTOMATIC SLIMS 733 WASHINGTON STREET New York NY 10014",
   "Lat": 40.7362217,
   "Lng": -74.0083467
 },
 {
   "Name": "DAKOTA DINER 921 RICHMOND AVENUE New York NY 10314",
   "Lat": 40.624752,
   "Lng": -74.1485
 },
 {
   "Name": "COUNTRY DONUTS 4357 AMBOY ROAD New York NY 10312",
   "Lat": 40.5453785,
   "Lng": -74.160497
 },
 {
   "Name": "CASTLEHILL DINER 1506 BRONXDALE AVENUE New York NY 10462",
   "Lat": 40.8426727,
   "Lng": -73.853808
 },
 {
   "Name": "PAPAZZIO RESTAURANT 3938 BELL BOULEVARD New York NY 11361",
   "Lat": 40.764232,
   "Lng": -73.771625
 },
 {
   "Name": "COLUMBIA COTTAGE 1034 AMSTERDAM AVENUE New York NY 10025",
   "Lat": 40.8049419,
   "Lng": -73.9624545
 },
 {
   "Name": "GRAND CANYON 141 MONTAGUE STREET New York NY 11201",
   "Lat": 40.694843,
   "Lng": -73.993645
 },
 {
   "Name": "ALPHA DONUTS 45-16 QUEENS BOULEVARD New York NY 11104",
   "Lat": 40.7430542,
   "Lng": -73.9191958
 },
 {
   "Name": "SUGAR BUN BAKERY 15622 CROSS BAY BOULEVARD New York NY 11414",
   "Lat": 40.6634716,
   "Lng": -73.8410617
 },
 {
   "Name": "INDIGO INDIAN CUISINE 357 EAST 50 STREET New York NY 10022",
   "Lat": 40.7593941,
   "Lng": -73.9697795
 },
 {
   "Name": "JAVA RESTAURANT 455 7 AVENUE New York NY 11215",
   "Lat": 40.6681669,
   "Lng": -73.9800645
 },
 {
   "Name": "LES HALLES 411 PARK AVENUE SOUTH New York NY 10016",
   "Lat": 40.743549,
   "Lng": -73.983523
 },
 {
   "Name": "PIZZA NOSH 2807 NOSTRAND AVENUE New York NY 11229",
   "Lat": 40.6157814,
   "Lng": -73.9447332
 },
 {
   "Name": "PIZZA GARDEN 171-01 NORTHERN BOULEVARD New York NY 11358",
   "Lat": 40.758202,
   "Lng": -73.795345
 },
 {
   "Name": "DORAL DONUTS 3116 BROADWAY New York NY 11106",
   "Lat": 40.7615312,
   "Lng": -73.9248952
 },
 {
   "Name": "WHITE CASTLE 112-11 SPRINGFIELD BOULEVARD New York NY 11429",
   "Lat": 40.7056491,
   "Lng": -73.7396071
 },
 {
   "Name": "ROSA #2 PIZZERIA 7559 METROPOLITAN AVENUE New York NY 11379",
   "Lat": 40.713307,
   "Lng": -73.875386
 },
 {
   "Name": "MCDONALD'S 250-01 NORTHERN BOULEVARD New York NY 11362",
   "Lat": 40.7683787,
   "Lng": -73.737484
 },
 {
   "Name": "ERIN'S ISLE 15403 CROSS ISLAND PARKWAY New York NY 11357",
   "Lat": 40.7868916,
   "Lng": -73.8080155
 },
 {
   "Name": "ACADEMY RESTAURAUNT 69 LAFAYETTE AVENUE New York NY 11217",
   "Lat": 40.687295,
   "Lng": -73.9757464
 },
 {
   "Name": "PARNELL'S PUB 350 EAST 53 STREET New York NY 10022",
   "Lat": 40.7593941,
   "Lng": -73.9697795
 },
 {
   "Name": "SAL AND CARMINE PIZZA 2671 BROADWAY New York NY 10025",
   "Lat": 40.7983829,
   "Lng": -73.969439
 },
 {
   "Name": "WHITE CASTLE 213-17 NORTHERN BOULEVARD New York NY 11361",
   "Lat": 40.7605092,
   "Lng": -73.7698141
 },
 {
   "Name": "THE EDGE BAR 95 EAST 3 STREET New York NY 10003",
   "Lat": 40.7322535,
   "Lng": -73.9874105
 },
 {
   "Name": "MCDONALD'S 1660 RICHMOND AVENUE New York NY 10314",
   "Lat": 40.607787,
   "Lng": -74.162854
 },
 {
   "Name": "KILLARNEY'S PUB 6911 FIFTH AVENUE New York NY 11209",
   "Lat": 40.633037,
   "Lng": -74.020889
 },
 {
   "Name": "MIRACALI BAKERY 76-04 ROOSEVELT AVENUE New York NY 11372",
   "Lat": 40.74705,
   "Lng": -73.8894719
 },
 {
   "Name": "DANIEL'S BAGEL 569 THIRD AVENUE New York NY 10016",
   "Lat": 40.747801,
   "Lng": -73.976137
 },
 {
   "Name": "TRATTORIA ALBA 233 EAST 34 STREET New York NY 10016",
   "Lat": 40.74727,
   "Lng": -73.9800645
 },
 {
   "Name": "LJUBO'S PIZZERIA 15 WESTCHESTER SQUARE New York NY 10461",
   "Lat": 40.8411084,
   "Lng": -73.8428466
 },
 {
   "Name": "LITTLE PIE COMPANY 424 WEST 43 STREET New York NY 10036",
   "Lat": 40.7602619,
   "Lng": -73.9932872
 },
 {
   "Name": "MALACHY'S 103 WEST 72 STREET New York NY 10023",
   "Lat": 40.7769059,
   "Lng": -73.9800645
 },
 {
   "Name": "PRONTO PIZZA 30 WEST 48 STREET New York NY 10036",
   "Lat": 40.7602619,
   "Lng": -73.9932872
 },
 {
   "Name": "GROTTO AZZURA PIZZERIA 8505 21 AVENUE New York NY 11214",
   "Lat": 40.6042332,
   "Lng": -74.0025999
 },
 {
   "Name": "HARRY'S BURRITO JUNCTION 241 COLUMBUS AVENUE New York NY 10023",
   "Lat": 40.7768026,
   "Lng": -73.9789821
 },
 {
   "Name": "QUEENS COFFEE SHOP 10880 ROOSEVELT AVENUE New York NY 11368",
   "Lat": 40.7514737,
   "Lng": -73.8561804
 },
 {
   "Name": "DELMONICO GOURMET 375 LEXINGTON AVENUE New York NY 10017",
   "Lat": 40.7508686,
   "Lng": -73.9760637
 },
 {
   "Name": "SYBIL'S BAKERY 13217 LIBERTY AVENUE New York NY 11419",
   "Lat": 40.691014,
   "Lng": -73.813673
 },
 {
   "Name": "EL LINA RESTAURANT 500 WEST 207 STREET New York NY 10034",
   "Lat": 40.8721452,
   "Lng": -73.9212858
 },
 {
   "Name": "BAR ASSOCIATION OF THE CITY OF NY KITCHEN 42 WEST 44 STREET New York NY 10036",
   "Lat": 40.7602619,
   "Lng": -73.9932872
 },
 {
   "Name": "LA MELA RESTAURANT 167 MULBERRY STREET New York NY 10013",
   "Lat": 40.719931,
   "Lng": -73.997352
 },
 {
   "Name": "SHORT STOP RESTAURANT 5977 BROADWAY New York NY 10463",
   "Lat": 40.8897385,
   "Lng": -73.8982475
 },
 {
   "Name": "DUE 1396 THIRD AVENUE New York NY 10075",
   "Lat": 40.7747147,
   "Lng": -73.9573454
 },
 {
   "Name": "LA CASA DEL POLLO RESTAURANT 8707 ROOSEVELT AVENUE New York NY 11372",
   "Lat": 40.7483467,
   "Lng": -73.8789718
 },
 {
   "Name": "WHITE CASTLE 1677 BRUCKNER BOULEVARD New York NY 10472",
   "Lat": 40.8252481,
   "Lng": -73.8674831
 },
 {
   "Name": "TEA AND SYMPATHY 108 GREENWICH AVENUE New York NY 10011",
   "Lat": 40.7382932,
   "Lng": -74.0019453
 },
 {
   "Name": "BEL PAESE ITALIAN DELI 459 LEXINGTON AVENUE New York NY 10017",
   "Lat": 40.7534139,
   "Lng": -73.9743584
 },
 {
   "Name": "VENICE PIZZA 1539 UNIONPORT ROAD New York NY 10462",
   "Lat": 40.8369919,
   "Lng": -73.857702
 },
 {
   "Name": "ORSO 322 WEST 46 STREET New York NY 10036",
   "Lat": 40.7602619,
   "Lng": -73.9932872
 },
 {
   "Name": "OAKLAND CAFETERIA/QUEENSBOROUGH COMMUNITY COLLEGE 222-05 56 AVENUE New York NY 11364",
   "Lat": 40.7469886,
   "Lng": -73.7536695
 },
 {
   "Name": "Q.B.COMM.COLLEGE-MAIN KITCHEN/TIGER BITES PIZZA SECTION 222-05 56 AVENUE New York NY 11364",
   "Lat": 40.7469886,
   "Lng": -73.7536695
 },
 {
   "Name": "T.G.I. FRIDAY'S 484 8TH AVE. 34TH &8TH New York NY 10001",
   "Lat": 40.7536854,
   "Lng": -73.9991637
 },
 {
   "Name": "TAL BAGELS DELI 975-979 FIRST AVENUE New York NY 10022",
   "Lat": 40.7563113,
   "Lng": -73.9646617
 },
 {
   "Name": "TRATTORIA DELLA ARTE 900 7 AVENUE New York NY 10106",
   "Lat": 40.7654616,
   "Lng": -73.9809827
 },
 {
   "Name": "MCDONALD'S 5167 EAST 161 STREET New York NY 10451",
   "Lat": 40.8187386,
   "Lng": -73.9271644
 },
 {
   "Name": "CHRISTINA'S RESTAURANT 853 MANHATTAN AVENUE New York NY 11222",
   "Lat": 40.729085,
   "Lng": -73.954054
 },
 {
   "Name": "KARAVAS PIZZA N PITA 108 7 AVENUE SOUTH New York NY 10014",
   "Lat": 40.7366138,
   "Lng": -74.0094471
 },
 {
   "Name": "WALTER'S BAR 389 8 AVENUE New York NY 10001",
   "Lat": 40.7536854,
   "Lng": -73.9991637
 },
 {
   "Name": "SALVATORE AND LLOYD'S PIZZA 3850 RICHMOND AVENUE New York NY 10312",
   "Lat": 40.5439857,
   "Lng": -74.1649765
 },
 {
   "Name": "NOVECENTO 343 WEST BROADWAY New York NY 10013",
   "Lat": 40.72255,
   "Lng": -74.0033499
 },
 {
   "Name": "MCDONALD'S 4018 MAIN STREET New York NY 11354",
   "Lat": 40.759006,
   "Lng": -73.830311
 },
 {
   "Name": "ABSOLUTE BAGELS 2788 BROADWAY New York NY 10025",
   "Lat": 40.802516,
   "Lng": -73.9673998
 },
 {
   "Name": "B.Q.E. CAFE BILLIARDS 7002 34 AVENUE New York NY 11372",
   "Lat": 40.7527924,
   "Lng": -73.8801301
 },
 {
   "Name": "NEW WAVE CAFE & RESTAURANT 2210 BROADWAY New York NY 10024",
   "Lat": 40.7833573,
   "Lng": -73.9799287
 },
 {
   "Name": "MARKET CAFE 496 9 AVENUE New York NY 10018",
   "Lat": 40.755322,
   "Lng": -73.9932872
 },
 {
   "Name": "LA ANTIOQUENA BAKERY II 4007 NATIONAL STREET New York NY 11368",
   "Lat": 40.749222,
   "Lng": -73.862658
 },
 {
   "Name": "SHARMEL CATERERS 728 EMPIRE AVENUE New York NY 11691",
   "Lat": 40.606706,
   "Lng": -73.744491
 },
 {
   "Name": "GRACIE'S CORNER 352 EAST 86 STREET New York NY 10028",
   "Lat": 40.7766412,
   "Lng": -73.9521468
 },
 {
   "Name": "WESTWAY DINER 614 9 AVENUE New York NY 10036",
   "Lat": 40.7602619,
   "Lng": -73.9932872
 },
 {
   "Name": "MOTIVO 915 BROADWAY New York NY 10010",
   "Lat": 40.739751,
   "Lng": -73.9898869
 },
 {
   "Name": "TOLEDO 6 EAST 36 STREET New York NY 10016",
   "Lat": 40.74727,
   "Lng": -73.9800645
 },
 {
   "Name": "ARNO RISTORANTE 141 WEST 38 STREET New York NY 10018",
   "Lat": 40.755322,
   "Lng": -73.9932872
 },
 {
   "Name": "GALICIA RESTAURANT 4083 BROADWAY New York NY 10032",
   "Lat": 40.844211,
   "Lng": -73.9391802
 },
 {
   "Name": "LUIGI'S PIZZA 19 HILLEL PLACE New York NY 11210",
   "Lat": 40.6325432,
   "Lng": -73.9481559
 },
 {
   "Name": "BERGEN BEACH CAFE 7112 AVENUE U New York NY 11234",
   "Lat": 40.619872,
   "Lng": -73.906922
 },
 {
   "Name": "AZURI CAFE 465 WEST 51 STREET New York NY 10019",
   "Lat": 40.7686973,
   "Lng": -73.9918181
 },
 {
   "Name": "SOUEN RESTAURANT 28 EAST 13 STREET New York NY 10003",
   "Lat": 40.7322535,
   "Lng": -73.9874105
 },
 {
   "Name": "CAFFE GRAZIE 26 EAST 84 STREET New York NY 10028",
   "Lat": 40.7766412,
   "Lng": -73.9521468
 },
 {
   "Name": "SCIENCE CAFE (QUEENSBOROUGH COMMUNITY COLLEGE) 222-05 56 AVENUE New York NY 11364",
   "Lat": 40.7469886,
   "Lng": -73.7536695
 },
 {
   "Name": "JIMMY MAX RESTAURANT 280 WATCHOGUE ROAD New York NY 10314",
   "Lat": 40.6161243,
   "Lng": -74.1386246
 },
 {
   "Name": "WENDY'S 3636 BOSTON ROAD New York NY 10469",
   "Lat": 40.8796486,
   "Lng": -73.8423198
 },
 {
   "Name": "SUGAR HILL RESTAURANT, SUPPER CLUB AND DISCO 609 DEKALB AVENUE New York NY 11216",
   "Lat": 40.6913485,
   "Lng": -73.9517189
 },
 {
   "Name": "ARIRANG HIBACHI STEAKHOUSE 8812 4 AVENUE New York NY 11209",
   "Lat": 40.6212119,
   "Lng": -74.0329499
 },
 {
   "Name": "LA LUNCHEONETTE 130 TENTH AVENUE New York NY 10011",
   "Lat": 40.7446571,
   "Lng": -74.006113
 },
 {
   "Name": "MUSTANG SALLY'S RESTAURANT 324 SEVENTH AVENUE New York NY 10001",
   "Lat": 40.7475978,
   "Lng": -73.9935268
 },
 {
   "Name": "METROSTAR CAFE 369 JAY STREET New York NY 11201",
   "Lat": 40.692606,
   "Lng": -73.986945
 },
 {
   "Name": "SCALINATELLA RISTAURANT 201 EAST 61 STREET New York NY 10065",
   "Lat": 40.7645239,
   "Lng": -73.9624327
 },
 {
   "Name": "LA NUEVA VICTORIA RESTAURANT 2536 BROADWAY New York NY 10025",
   "Lat": 40.79371,
   "Lng": -73.971952
 },
 {
   "Name": "YEN YEN RESTAURANT 404 CHURCH AVENUE New York NY 11218",
   "Lat": 40.6440353,
   "Lng": -73.9764417
 },
 {
   "Name": "RISQUE BILLARDS LOUNGE CAFE 213 MCGUINNESS BOULEVARD New York NY 11222",
   "Lat": 40.7293718,
   "Lng": -73.9513052
 },
 {
   "Name": "WHITE CASTLE 3663 BOSTON ROAD New York NY 10466",
   "Lat": 40.8803202,
   "Lng": -73.8419345
 },
 {
   "Name": "PIPERS KILT 4946 BROADWAY New York NY 10034",
   "Lat": 40.8677008,
   "Lng": -73.9206951
 },
 {
   "Name": "AREO RESTAURANT 842484 20 -3RD AVENUE New York NY 11209",
   "Lat": 40.6212119,
   "Lng": -74.0329499
 },
 {
   "Name": "DEMARCHELIER RESTAURANT 50 EAST 86 STREET New York NY 10028",
   "Lat": 40.7766412,
   "Lng": -73.9521468
 },
 {
   "Name": "WALNUT BUS STOP 881 EAST 134 STREET New York NY 10454",
   "Lat": 40.8022594,
   "Lng": -73.9154069
 },
 {
   "Name": "USAGI 320 EAST 49 STREET New York NY 10017",
   "Lat": 40.7519846,
   "Lng": -73.9697795
 },
 {
   "Name": "GOURMET GRILL 6334 AVENUE N New York NY 11234",
   "Lat": 40.6193982,
   "Lng": -73.9160189
 },
 {
   "Name": "DOWN THE HATCH 175 WEST 4 STREET New York NY 10014",
   "Lat": 40.7366138,
   "Lng": -74.0094471
 },
 {
   "Name": "EL MOLINO ROJO RESTAURANT 101 EAST 161 STREET New York NY 10451",
   "Lat": 40.8187386,
   "Lng": -73.9271644
 },
 {
   "Name": "ISLA RESTAURAUNT 510 WILLIS AVENUE New York NY 10455",
   "Lat": 40.8151851,
   "Lng": -73.9181633
 },
 {
   "Name": "MARGOT RESTAURANT 3822 BROADWAY New York NY 10032",
   "Lat": 40.8353256,
   "Lng": -73.9435246
 },
 {
   "Name": "TRE GIOVANI PIZZA & PASTA 548 LA GUARDIA PLACE New York NY 10012",
   "Lat": 40.7285861,
   "Lng": -73.9988199
 },
 {
   "Name": "WENDY'S 2140 WESTCHESTER AVENUE New York NY 10462",
   "Lat": 40.8340004,
   "Lng": -73.8534272
 },
 {
   "Name": "MASAWA 1239 AMSTERDAM AVENUE New York NY 10027",
   "Lat": 40.8097806,
   "Lng": -73.9585846
 },
 {
   "Name": "HUNTER'S STEAK & ALE HOUSE 9404 FOURTH AVENUE New York NY 11209",
   "Lat": 40.616655,
   "Lng": -74.031194
 },
 {
   "Name": "SAN PIETRO 18 EAST 54 STREET New York NY 10022",
   "Lat": 40.7593941,
   "Lng": -73.9697795
 },
 {
   "Name": "GLEN PATRICK'S PUB 5373 65 PLACE New York NY 11378",
   "Lat": 40.7224092,
   "Lng": -73.9095279
 },
 {
   "Name": "OLYMPIA 2344 STEINWAY STREET New York NY 11105",
   "Lat": 40.7702979,
   "Lng": -73.909634
 },
 {
   "Name": "JULLIARD & S.A.B. CAFETERIA 0 LINCOLN CENTER New York NY 10023",
   "Lat": 40.7769059,
   "Lng": -73.9800645
 },
 {
   "Name": "NIAGARA/ LOVERS OF TODAY/ CABIN DOWN BELOW 112 AVENUE A New York NY 10009",
   "Lat": 40.7258722,
   "Lng": -73.983406
 },
 {
   "Name": "GLENDALE PIZZA 6827 MYRTLE AVENUE New York NY 11385",
   "Lat": 40.701895,
   "Lng": -73.883638
 },